"id","organization_id","name","alternate_name","description","transportation","latitude","longitude","location_services","location_phones","location_details","location_schedule","location_address","location_tag","enrich_flag","flag"
"538977790426516","1222701888984669","Sasha Bruce - Independent Living Program","","","","38.8901671","-76.9876558","1247609265512489","603002809602031","","","925088886359493","","",""
"541907027325035","1189940866829310","SHARE Food Network Main Office","","","","38.9288531","-76.8740779","1279531428850596","777650091270925,644017795337557","","809673369078084","1147438245453131","","",""
"547101019208237","0","1251-B Saratoga Ave NE Washington, DC, 20018, US","","","","38.9216262","-76.9892376","","1352422279870633","","1338861885601103,1338861885601104,1338861885601105,1338861885601106,1338861885601107,1338861885601108,1338861885601109,1338861885601110","1347874758673672","","",""
"557042258022055","965244460063048","Byte Back","","","","38.9010559","-77.0085403","610393181590401,621922475876912","626911642105346","","","594041340982660","","",""
"555733908618539","1351080129222821","Isaiah House","","","","37.8073428","-85.1309596","1223343952721664","1352422279870626","","1338861885603225","1347874758673708","","",""
"557094579799532","1091742936273498","Engine 15 Station","","","","29.9252554","-90.1167877","1278346715900586,608659423860858","712245272441801","","","607535323277785","","",""
"566932797594098","758358330691109","Contemporary Family Services - DC Georgia Ave","","","","38.9669177","-77.0270752","924549516555160,1015257402861824,1200612658418419","1275875687653401","","1338861885601251","1007422500157066","","",""
"569762980024499","1151840654132771","HSC Pediatric Center","","","","38.9410221","-76.9812464","1251282400091320,643883051065479,1300815691678453,634331653721930,739110335088609,1125189538542481,1262432728139962,859784781707721,919789306976808,1340874883349935,1117866913583560,1216919996503351,809925333569605,1281760748874328,768577653576222","763123579248149","","","758202120336301","","",""
"572608168009697","894973668784309","1201 New York Avenue NW Washington, DC 20005","","","","38.9007958","-77.0285713","569993365952063","1116968298179926","","","646572968848504","","",""
"580105202701779","1189929745395085","7603 Georgia Avenue Nw Washington, DC 20012","","","","38.9819508","-77.026198","1145378947399920","1096440350605668","","","620656622047666","","",""
"597782883329806","1180009592526991","1234 Massachuettes Avenue NW Washington, DC 20005","","","","38.9043273","-77.0291448","767372962284323","1052461018117943","","","","","",""
"553317561400491","1098153529407228","2041 Georgia Avenue NW Washington, DC 20060","","","","38.9175305","-77.0204417","897612626354041","1284668993888789","","1338861885603424","985764934104319","","",""
"562543524311596","1329764475795847","DC Health and Wellness Center","","","","38.9093349","-77.0068364","770578690423338","1352422279870741","","","1136635922647218","","",""
"571421925629438","948639800544467","Safe Shores","","","","38.908842","-77.0170412","979425998294597,669665309659481,1150603832651756,855260709365984,1331055862752219,1144419665946228","963927944202202","","539398848532122","621992063855976","","",""
"571282409737911","0","624 9th Street NW Washington, DC 20001","","","","38.898098","-77.024445","","790273098777706","","","787251745409957","","",""
"572575030404839","765268136875870","Sherman Avenue Single Room Occupancy (SRO)","","","","38.9264462","-77.0261081","757996066878670","1052461018117943","","1092472091063330","1183611862388189","","",""
"573970502850349","1001381268835594","Ayuda MD Office","","","","38.9985997","-77.0300671","761729408560878,1108270050321045,1113729883287074","12184481479744061218448147974406,1218448147974406,1218448147974406,1218448147974406,1218448147974406,1218448147974406,1218448147974406,1218448147974406,","","","1302050715895903","","",""
"577218861870418","901970914472025","YMCA Fairfax County Reston","","","","38.9560115","-77.36817","609764906879432,793641507311678,1142869830287216,1232646715498091,1261952699824933","1085461853649281","","1338861885601330","623483554226574","","",""
"591956672701732","752311766026273","MetroHealth Office","","","","38.9032398","-77.0322033","1232667842792865,815127350806373,808097983123711,1212568722090763,660488487868159,1208455747240239","1095633478052311","","1338861885602609","678389102808498","","",""
"599293678245907","1280943812182660","Camp Bennett Retreat and Conference Center","","","","39.193383","-77.064886","1202173337787980","1293409383366678","","","1118537712180613","","",""
"602400615052275","1005694830501113","Wanda Alston House Main Office","","","","38.8945084","-77.0116897","1176697876442539","950188346891245,672725923890616,670208940343738","","","1269400119905133","","",""
"601572087337202","976479787219157","Open Arms Housing","","","","38.9087932","-77.0109698","1275679223903759,1331448293255479,910488601528452","1275681199014965","","1150092000785589","1302571910221088","","",""
"604721858303896","832081175822927","N Street Village Main Office","","","","38.9075729","-77.0314836","744532051423737,1146482188745759,1129022337432214,1124640120854271,1125987342546107,1245580607395005","1352422279870633","","1338861885602885","1083435186659207","","",""
"610843915418170","863547285733670","SHABACH! Emergency Empowerment Center","","","","38.89487","-76.849975","1079995367180066,980051444166145,604818206550536,1093343173920146,1257314642932231,1204018684568425,1174738273256108,680562197957511,676934928364883,1178657807139643","1288279633292554","","","812563382831399","","",""
"608530994924722","1115449373062853","1434 Harvard St NW Ste B","","","","38.9261688","-77.0336203","926727862058947","947850987908112","","","","","",""
"610544508126672","1284952943863665","Unity at Christ House (Ward 1)","","","","38.9248928","-77.0399673","637056281967653,641492455035039","","","","615754001734322","","",""
"616726566011959","1213518469346648","Barbara Chambers Children's Center #3","","","","38.9315658","-77.032923","627561586053944,834804986562892,1153101336983128,1297938251275210","1092073669696951","","1338861885603704","1182425200878870","","",""
"567375676110841","0","The Salvation Army Solomon G. Brown","","","","38.8629362","-76.9912175","592279932552007","","","","886350074237165","","",""
"583377819980477","626697805700987","Food for Others Warehouse","","","","38.871416","-77.23827","614870969341256","1135810201984804","","919555252496521","984182916936531","","",""
"580857017779168","1284952943863665","Unity at New York Avenue Homeless Shelter (Ward 5)","","","","38.9150671","-76.9858391","637056281967653,641492455035039","","","","1227472949671102","","",""
"583333008710054","0","425 2nd Street NW Washington, DC, 20001, US","","","","38.8954586","-77.0133543","","","","","","","",""
"584945568119538","919694976245435","Georgetown Ministry Center","","","","38.9035686","-77.0619983","1118736926815724,1311425782447298,1257941540805584,852528117694344","1325771402285250","","","672441536301131","","",""
"584764537637617","1102284383103447","DHS Economic Security Administration (ESA) Service Center - Anacostia","","","","38.899854","-76.996379","1096380639922060","773551335877915","","1108259875674319","784159274553672","","",""
"600295822156667","1091742936273498","Engine 1 Station","","","","40.7485676","-73.9910449","1278346715900586,608659423860858","824957746276601","","","1131930503010436","","",""
"612821914479266","0","Salvation Army Center","","","","39.186734","-77.262561","1291646983149791","","","1211474833190336","582637073567743","","",""
"611309881787759","0","1434 Harvard Street NW Washington, DC 20009","","","","38.9261688","-77.0336203","","947850987908112","","","649938834425031","","",""
"613607303207687","1114290760690506","St. Philip the Evangelist Episcopal Church","","","","38.8655385","-76.9858177","637221801458890","816775581344433","","","620752786504942","","",""
"621313880084833","671975015184031","441 4th Street NW Washington, DC 20001","","","","38.8954713","-77.0156037","1034468061059687","1092060675701868","","","1208690380192888","","",""
"623817892479347","865637769620382","Sixth Presbyterian Church","","","","38.9558956","-77.0359182","1077886511267517","578454598221286","","","1147888602738885","","",""
"626384571287639","868277751391055","Casa Ruby","","","","38.981673","-77.026926","1228391315842600,1172610413356554,905246821897219,1166513065360124,962682510401278,1092865667584408,886045211613436,937486809669218","1016106509669888","","1158254210885553,613757687605118","872518613530298","","",""
"629927782672872","1151840654132771","HSC Mobility Machine","","","","38.9410221","-76.9812464","1251282400091320,739110335088609,859784781707721","","","","","","",""
"574603403182846","1031170884115304","Nazarene Outpost Ministries","","","","38.9158405","-77.0127132","710118290554444,1055040381486326,622808373738547","856038833951668","","","929265819012207","","",""
"590104892784839","1102284383103447","DHS Economic Security Administration (ESA) Service Centers - Taylor Street","","","","38.899854","-76.996379","1096380639922060","563160269315454","","","906697694533879","","",""
"584215858451001","1102961709884725","Virginia Williams Family Resource Center","","","","38.9230157","-76.9930174","991462076076973,1107276468708862,643156433763559,1207720606469506,781718626017793","1300680852398273,980493210959521,795986882596360","","927904724916378,840555982869909,833376815115699,1199810856302974","1208952103088856","","",""
"602194922558765","1143076176825121","Whitman-Walker at LIZ","","","","38.9127472","-77.0315012","1261327178795055,803513081069526,756512918126172,1094239887822670,640682707343284","1352422279870687","","1338861885601232","1347874758673680","","",""
"624908178427639","1091742936273498","FEMS Main Office","","","","38.9175929","-77.0324361","","791776604694708","","","635194760040908","","",""
"625420662664147","0","DC Public Library: The Adult Literacy Resource Center","","","","38.9020363","-77.0445171","","","","985253172980044","610628029005570","","",""
"636884985267395","1091742936273498","Engine 22 Station","","","","40.0899286","-74.9850527","1278346715900586,608659423860858","1206883817519147","","","608429847924614","","",""
"603618233221428","1126607081226356","JSSA Rockville - Montrose","","","","39.0534464","-77.1240222","1330460837989046,1091696179482661,569171803920168,1237618325820422,943690370414778,1249421918700941,1176914771702299,1248465838378546,822886605211738,609280054378490,1224495074701354","577294934954499,818610335474984","","821235535045622,794404419664353,1124435486943568","885324483952778","","",""
"625247779378848","811471160167819","Lorton Community Action Center","","","","38.6993953","-77.2140415","1346017134806581,614660449605719,1228983284901807,1275024510435821","750363040196300","","1250568651405156,634711490856800","618873814452104","","",""
"636848661261240","876886021673283","Martha's Table Headquarters at the Commons","","","","38.8548975","-76.9844872","667387929525624,905712024453663,810458383121333,867810178957304,925876618282340,753746449496571,808149675507884,1208941632060908,998881009851013","839546521594442","","1081601334352404,1300752151799822,1306923898154738,655228724729650,970752175352860","697965079239989","","",""
"637109273390087","824101881058300","Perennial House","","","","38.8980819","-76.9375237","1317004978451196,1172189593592063,875783576771374","586573323321695","","","810499733508160","","",""
"637684733149897","1275858156254689","Seabury - Home First Residences & Age-In-Place","","","","38.92263","-76.978202","938270944825871,1210054763234429","1008518183058605","","819917967554750","1152665399777698","","",""
"645373982298053","808240584407061","Community School - M.V. Woods Elementary School","","","","38.742567","-77.1004222","","949206606709939","","","1102248588896229","","",""
"589160218536849","997370365137611","500 Indiana Avenue NW Washington, DC 20001","","","","38.8941","-77.018393","730728269689470","1271927775319103","","","613821611073899","","",""
"590471402150942","0","Silver Spring United Methodist Church- Four Corners Campus","","","","39.0197045","-77.0125189","1291646983149791","","","790093938428140","610099537374299","","",""
"587809760292730","765268136875870","Emery Work Bed Program","","","","38.9136032","-77.0073706","1155437863225575","559833184546723","","1092472091063330","965808119791153","","",""
"622769721428949","1091742936273498","Engine 28 Station","","","","39.9889918","-75.1000903","1278346715900586,608659423860858","822834585491715","","","977001215142371","","",""
"633948475356537","1187309405282204","Mazique at DFC","","","","38.900787","-76.9780775","882832254990502","1284130907349474","","","1230176419964750","","",""
"638609559652847","984055402205420","SERVE Campus","","","","38.7448018","-77.499861","987823009683776,1216093434926302,1227270113734434,862520686520779","1304455182692201,867166594258636","","","658991189660870","","",""
"640477199284806","0","1620 North Capitol Street NW Washington, DC 20002","","","","38.911733","-77.009411","","1246516779314247","","","603637449361122","","",""
"645897759928377","592376182631330","Rebuilding Together DC Alexandria","","","","38.8082432","-77.0465631","1120925823267751,1076835020018645,1107751503709452,1228697695545072","979091642460386","","","601829608206464","","",""
"648965877017429","1001381268835594","Ayuda North DC Office","","","","38.9736702","-77.0140741","761729408560878,1108270050321045,1113729883287074","1352422279870633,1352422279870634,1352422279870636,1352422279870637,1352422279870638,","","","636370606993834","","",""
"653251900948938","930037496704241","Central American Resource Center","","","","38.9271876","-77.0344749","826575730085111,629441538824999,625010110827987,1183837054694105,1309075999603061,576233469616692,1290826855930269,1098034582826680,1245797842459737,835196230590039,766179643113383,1144935558772710,896834539658723,810657067829775,1098013630156546,1277600718493078,817516189087861","854170424677205","","","971053510687489","","",""
"658644165822937","0","3240 Stanton Road SE Washington, DC, 20020, US","","","","38.8492543","-76.9806427","","","","","","","",""
"660130933621147","595267359680824","Ambassador Baptist Church","","","","38.8669965","-76.9841527","","1352422279870838","","1338861885603603","891932034436755","","",""
"624397784374194","635265662066015","Perry School Community Services Center","","","","38.9053115","-77.0127649","597273584134874,1194227911974076,801918885732334,588450653794139,1124936156339923,623211094881349,597275938978540","691608793849697","","852404376044455","1181749991176525","","",""
"622283334259424","0","1342 Florida Ave., NW Washington, DC 20009","","","","38.9201005","-77.0310298","","","","","","","",""
"623386708908164","1288114944946075","Deanwood Library","","","","38.9083862","-76.9319763","975549781096583","1231862036595702","","","1136480841976895","","",""
"629671493720412","0","555 L Street SE Washington, DC, 20003, US","","","","38.8772728","-76.9983719","","","","","","","",""
"634604766992517","876886021673283","Shrine of the Sacred Heart","","","","38.9311199","-77.0358506","1308027877412141","1168415490122375","","960960917484076","734118238049434","","",""
"635902575070564","1091742936273498","Engine 3 Station","","","","36.1619165","-95.9668165","1278346715900586,608659423860858","861208313743223","","","1012625127124230","","",""
"647230404089036","586301457835998","City of Praise Family Ministries","","","","38.9078285","-76.8557","1198304800320219,802059293903880,1332199960888369","767533541868240","","","954227038164397","","",""
"660448310809163","0","1701 14th Street NW Washington, DC 20009","","","","38.9127993","-77.0315736","","806994129206541","","","932159067256505","","",""
"661085324813258","808240584407061","Creekside Village Community Center","","","","38.743995","-77.0931279","636366666716828,712328327930380","878996924070917","","1114360603230392","1015013200161536","","",""
"665537720302910","1315578558618439","Youth Prevention Center: Wards 5 & 6","","","","38.8970231","-76.991825","936010727694695","627893071958181","","","778820650741473","","",""
"673635399946198","1347505314266969","DHCF Main Office","","","","38.8955504","-77.0157639","819876815045177,1179579948367764","852459537309170","","","943403778369532","","",""
"636167681957227","937130544214038","Edgewood Terrace Family Support Program","","","","38.9230682","-76.9981019","880540849737772","815051675815970","","630695801086693","1101918581972089","","",""
"644250986023852","858928431109507","4406 Georgia Avenue NW Washington, DC 20011","","","","38.9443286","-77.0265236","1277509014844349","856059026674450","","","847222763498596","","",""
"646112200857058","1151840654132771","HSC Outpatient Centers - Washington, DC Location","","","","38.9511541","-76.8342806","1251282400091320,739110335088609,1262432728139962,859784781707721,1216919996503351,768577653576222","1132773036383590","","","758202120336301","","",""
"655506922521028","","2300 Martin Luther King Jr Avenue SE Washington, DC 20020","","","","38.8629362","-76.9912175","837949590108858","1209710749230135","","1338861885601709","886350074237165","","",""
"658610517897796","1091742936273498","Engine 11 Station","","","","39.9421254","-75.1524839","1278346715900586,608659423860858","896988123469538","","","1054881648694219","","",""
"662383005717347","0","3020 14th Street NW Washington, DC, 20009, US","","","","38.9281612","-77.032968","","","","","","","",""
"670763981366130","698337947812895","DC Department of Energy and Environment Office","","","","38.9060314","-77.0063641","1092859529383419,853430057787908,985958129077094,834464881233325,795787284434998","853569892161372","","","734058533341446","","",""
"678805469856026","1351080129222842","30th Dec_Retesting_Again edit_1001 Lawrence Street NE Washington, DC 20017_new","Location Alternate Name:_new","Location Description:_new","","38.9313026","-76.9921627","","1352422279870851","","1338861885603908","1347874758673732","","",""
"623911698639626","1275858156254689","Seabury - Newton St","","","","38.9343383","-76.9665114","1063814078946036,963084111494175","867663934577117,1142710446777555,636390444955781","","","764741814024308","","",""
"669512480103420","1235669446637932","UPO Comprehensive Treatment Center","","","","38.8855512","-76.9739373","896329421364349","575551018765010","","1264033974254119,1186395037657157","1298121495880357","","",""
"671699874900293","1284952943863665","Columbia Road Health Services (Ward 1)","","","","38.9071923","-77.0368707","637056281967653","661172727532291","","","1081030491334688","","",""
"674838894214197","859831189737185","AimHire","","","","38.9563407","-77.0838769","1095680012179849","872748541280957","","786498631274459","1124924875711417","","",""
"680369109388099","1227863720998927","St Anthony of Padua Church (VA)","","","","38.8571225","-77.1386468","1223973175827182","1174506743482431,822315774778933","","1327468543320453,616186777115722","635895188591728","","",""
"683981038233399","1235669446637932","UPO Anacostia Community Service Center","","","","38.865727","-76.9807327","823287765002075,1272403811888637,1115773035158894,1097124274962034,1244177955657488,824403148838289,1222343403264201,782329565925103,828103015767690,1280097613047736,957811011700764,790527027022440,925701018774057,1234923855165980,1274090737385222,1131822692438420","1298811338000200","","1338861885603949","1100921455050231","","",""
"685641446710222","1288114944946075","Takoma Park Library","","","","38.9815444","-77.0110583","975549781096583,944525862208782","826913634381138","","","1087409436140251","","",""
"624574598656861","1284952943863665","Unity at Harbor Light (Ward 5)","","","","38.9176914","-76.9742971","641492455035039,637056281967653","","","","1297303621824918","","",""
"633623168263940","1284952943863665","Unity at Central Mission - Gales School (Ward 2)","","","","38.8987292","-77.0111112","641492455035039,637056281967653","","","","1065211799205229","","",""
"655977837118468","0","540 55th Street, NE Room W 101 Washington, DC, 20019, US","","","","38.8968428","-76.9227121","","","","","","","",""
"651934751090741","0","SOME Senior Center","","","","36.3362706","-94.1934794","1219965481612856,658172156866857,1282627737254185","","","","1216780850778368","","",""
"669898504214935","1084290800451609","DCHFA Office","","","","38.917126","-77.023511","","","","","1319953528418759","","",""
"666585505385556","889057390402463","YWCA North Capital Area","","","","38.920781","-77.0314981","689392643888484,674097006531397,725328222364770,830255620342454,1089573809572411,1337736663266538","1066187996447838","","1338861885603415","1246852239311670","","",""
"668285240761053","0","4414 Benning Road NE Washington, DC, 20019, US","","","","38.8909042","-76.9388809","","","","","","","",""
"681929479292327","0","1509 16th Street NW Washington, DC 20036","","","","38.9099927","-77.0360494","1183132408890447","","","","656825843412760","","",""
"693037857857932","884317159187782","McClendon Center - Core Services Agency","","","","38.9084211","-77.0093647","765148434335618,1183846216660530,824258346211268,974276139813148","1166477086569448","","776148315520828","813582059890260","","",""
"693867662447380","1222701888984669","Sasha Bruce House","","","","38.8970231","-76.991825","810322998076695,1252811207069395,1247087473794460,572309695509941,685001040442233,901644988734342","861143922515481","","","778820650741473","","",""
"716573413368445","901970914472025","YMCA Alexandria","","","","38.8212482","-77.0542801","609764906879432,741287798283565,793641507311678,811588311148333,1142869830287216,1232646715498091","583264602471139","","1338861885601331","1310277015717903","","",""
"712658990764743","687390186581235","Everyone Home DC Headquarters","","","","38.895629","-77.0032764","718763768520855,848785574110592,926618827303169,960664065602895","1300148679182763","","","797735121188541","","",""
"725060877971150","901970914472025","YMCA Main Office","","","","38.9042579","-77.0369714","","1352422279870805","","","993962351296479","","",""
"727772454332930","1160781889033598","1825 K Street NW Washington, DC 20006","","","","38.9029138","-77.0425038","803289389092544","1179945779338876,823350359966178","","","592187234976345","","",""
"744169816237550","937130544214038","Main Headquarters and Family Support Program","","","","38.9239294","-76.997202","957679721511506,1205734509587882,880540849737772","815051675815970,1330603641709413","","1270826539944522","865179689017950","","",""
"765146043026123","893442799835060","Northwest DC Office","","","","38.9246103","-77.0407159","768548905888033,788377494442735","760967524914269","","1000313729865166,632930369321470","896514595534361","","",""
"773036230997063","1277625881451110","Washington, DC Campus","","","","38.8568383","-76.9702919","958276513381633,1162124852182078","989493479963998","","1338861885603880","806915866686912","","",""
"780622753430249","1284952943863665","Upper Cardozo Health Center (Ward 1)","","","","38.9280998","-77.0329341","637056281967653,798441899320042,1085691019894863,797730088708586,568848745429108","661172727532291","","1338861885603301","600813147654170","","",""
"777544006426049","1284952943863665","Minnesota Avenue Health Center (Ward 7)","","","","38.8941947","-76.9496569","637056281967653,797730088708586","661172727532291","","1338861885603302","1221622469804354","","",""
"783199676002765","884317159187782","McClendon Center Day Program and Administrative Offices","","","","38.8999882","-77.0311238","1182824915404630","1263058924924978","","1279083224781037","988356905203017","","",""
"733623340463849","885700392354422","220 I Street NE Washington, DC 20002","","","","38.9015096","-77.0026014","859979647217207","1276125113964924","","","1126514711370379","","",""
"748318220525650","1288114944946075","Petworth Library","","","","38.9421922","-77.026143","975549781096583,596697894718349,944525862208782","865543406152138","","","911296474107046","","",""
"752192406551414","540732570709574","Southeast Site (Ward 8)","alter","","","38.8427649","-76.9999933","833282615728356","1149001768953790","","","1159636085127658","","",""
"752194277966513","1102284383103447","DHS Economic Security Administration (ESA) Service Centers - H Street","","","","38.899854","-76.996379","1337627384360672,941155067424059,1096380639922060","1227269834367647","","","1194113418596458","","",""
"754270075554049","1184125055440866","Habitat for Humanity DC","","","","38.9067455","-77.0474734","1177007501779839,966998420345688,757359275699925,978727751545440","","","554488883410804","1167385181913380","","",""
"758452020301645","0","The Kennedy STFH","","","","0","0","1251032317225019","","","","1219977665502250","","",""
"759833313909140","917755116346392","NLSP Far Northeast Office","","","","38.9091993","-76.9359706","1084455155861412,1114942083297484,1125858260716274,886500049202807,1236006015638372,1200983719344738,811112269491730","1231521383051622,777844917986346","","578413778188343,949146033103041","919731849360133","","",""
"761932548667891","0","1313 New York Avenue, NW BSMT Suite 1 Washington, DC, 20005,","","","","38.8999882","-77.0311238","","","","","","","",""
"769953967292170","558598955804152","Misler Adult Day Center","","","","39.0562259","-77.1270337","645620379335062","937031448061601,747283188766841","","961869001898862","1209762280338535","","",""
"771442194435641","1277625881451110","Upper Marlboro Campus","","","","38.8188109","-76.756107","","989493479963998","","1338861885603881","974532674780263","","",""
"778943349005908","816837809289342","5101 16th Street NW, Washington DC, 20011","","","","38.9522035","-77.0359818","","1352422279870729","","1338861885601714","1347874758673672","","",""
"777359034139686","1091742936273498","Engine 25 Station","","","","38.8431762","-77.0008016","1278346715900586,608659423860858","820958216163760","","","1157320795586111","","",""
"789483190572876","1091742936273498","Engine 20 Station","","","","39.954581","-75.155816","1278346715900586,608659423860858","718869495645604","","","989449353309073","","",""
"748854388242171","900390741392973","200 I Street Southeast Washington, DC 20003","","","","38.879923","-77.0030063","1199193012264353","968314407980003","","","1121657563814047","","",""
"758324816049097","0","Colesville Presbyterian Church","","","","39.0634603","-77.0031056","1291646983149791","","","575173996159764","1046729196129373","","",""
"753670429342362","937130544214038","Browne Educational Campus Family Support Program","","","","38.9031828","-76.970877","880540849737772","815051675815970","","","1107684680662037","","",""
"767072193495401","1153150741927521","PIDARC","","","","38.8972128","-77.0469182","1296135146920487","1236223012315706","","","847125473770110","","",""
"789492083968992","1288114944946075","Cleveland Park Library","","","","38.9338614","-77.0579754","975549781096583,596697894718349,944525862208782","1294481153200042","","","1154324034900477","","",""
"802167449988638","0","1201 S Capitol Street SW Washington, DC 20003","","","","38.8758715","-77.0094401","","853421305644666","","","857323111525060","","",""
"799734694979867","605309967915458","1421 37th Street NW Washington, DC 20057","","","","38.9083677","-77.0714087","1187407875753941","956993739208745","","","600596504683790","","",""
"800464838128526","1284952943863665","Unity at 801 East Building Shelter (Ward 8)","","","","38.8507118","-76.9932861","637056281967653,641492455035039","","","","811181965374068","","",""
"746894816095911","0","Atlantic Homes","","","","38.8277704","-77.0027121","936906190018086","","","","1198866501006562","","",""
"754005286138744","864865232678877","Early Stages","","","","38.9041874","-77.0138942","","1160971142352136","","","1146979390497061","","",""
"766212450574576","619974574898067","PABC","","","","38.8712006","-76.963811","","908210314810841,861539973857515","","","851160522085214","","",""
"802247163324047","968246809109996","Northwest Center","","","","38.924407","-77.0405135","1299749997616354,806763348310571","1090861022746788","","1303254102562307,1115874707410869","812860415472489","","",""
"810081831183407","1203024767725850","Marie Reed Health Center","","","","38.9192027","-77.0403449","573712074661708,1225681361275050,915604912347301,1107196998383990","1308978850099054","","1338504372190060,939730174420179,1200466560559152,1284034006557656,1334350080962031,1089592208225810,1324986067958938","1275244454223169","","",""
"750119883782411","818433220295218","Pine Ridge Community Center","","","","38.9982431","-77.0001042","1233124771884739","945011846421955,891644478369558","","995342415018558,807855242932890,1284665114387253","1198431335179303","","",""
"754367682140572","1222701888984669","Sasha Bruce - Olaiya's Cradle","","","","38.879803","-76.9953419","","","","","","","",""
"759315113269853","1345471385548761","DHCD Main Office","","","","42.3605677","-71.0620715","","1187982557400502","","","1160738140545330","","",""
"779234665793356","901970914472025","YMCA Arlington Woodmont Gymnastics Center","","","","38.9022744","-77.09761","","913766000250514","","1338861885601333","801589347975855","","",""
"803666590300951","1126607081226356","JSSA Rockville - Fallsgrove","","","","39.1016604","-77.1887297","1206515011255222,869411193408138,956316316250592,1247441946122537,1189862050430597,842118695599527,596509168605852,1158805154331276,1249421918700941,637788539576170","804131276272542,818610335474984","","883702057588908,893592352798388","636730080252872","","",""
"803919860966416","0","Adams Place Day Center","","","","38.9194382","-76.9746028","788820780825349","","","","1170670104465846","","",""
"774762987300374","0","Clifton Park Baptist Church","","","","39.0003356","-76.9940973","1291646983149791","","","841481165710536","1199893812178398","","",""
"778922579379097","1315578558618439","Youth Prevention Center: Wards 7 & 8","","","","38.8945549","-76.9478942","936010727694695","936234438645818","","","1255270432383739","","",""
"782008328527476","0","J.C. Nalle Elementary School","","","","38.8859102","-76.9308836","1267873191960879","","","","931950685081380","","",""
"785947788193097","1091742936273498","Engine 17 Station","","","","38.9323316","-76.9899126","1278346715900586,608659423860858","1231763818775348","","","1120134710893230","","",""
"826462308173307","593542128006992","2200 California Street NW Washington, DC 20008","","","","38.915645","-77.0490255","1208546240377147","633644037584273","","","848574801946356","","",""
"770924552273178","650479626662564","NCCF Greentree Center","","","","38.9253654","-76.9845781","911214413937448,992653786137258,590856913957665,1350703837531670,850826199765599","1254564997682888,973953459656722,869647641173429","","","838488296850768","","",""
"796898419678236","0","DC Office - Family and Medical Counseling Services, Inc.","","","","38.8659856","-76.9897776","634163805498241,1191828341135162,915801395995557,843417621771816,997382439625145,827423614142820,998818821487302,617802974901710,1102573292657410,1005856083111610,1048725052232264","738691625272988,1237143401259837","","1338861885602424","777280412238157","","",""
"805946412097203","0","3020 14th Street NW Washington, DC 20009","","","","38.9281612","-77.032968","","1295933387038052","","","","","",""
"801824083496989","0","645 H Street, NE, WDC 20002","","","","38.899988","-76.9964478","","1227269834367647","","","823949607579347","","",""
"810077928064262","1288114944946075","Woodridge Library","","","","41.755681","-88.0453598","975549781096583,596697894718349,944525862208782","691800564621591","","","818421938661984","","",""
"827272218664674","1265547770857863","Father McKenna Center","","","","38.9014721","-77.0092596","1081615978709955,983357706289803,1185047725805350,850231451296174,1053054069738308","1121679495003948","","","1132309778319947","","",""
"831473206652840","863547285733670","Shabach Ministries","","","","38.9355627","-76.8587826","","631265950358185","","","1307815912510000","","",""
"835433332785416","1222701888984669","Sasha Bruce - Promise Place","","","","38.8851122","-76.9158068","828873851944462","1206875724336268","","","","","",""
"839539921735392","1222701888984669","Sasha Bruce - Transitional Housing Program","","","","38.8282306","-76.9959647","1262274366963110","1232762831983940","","","1341234037198749","","",""
"804162820575251","1121342754860910","Children’s National Emergency Department at United Medical Center","","","","38.8359393","-76.9849936","681568772199807","1060154582249250","","","1253142566681779","","",""
"815051886893035","1121342754860910","Upper Marlboro Outpatient Center","","","","38.8172799","-76.8419598","585745505232672","1146425277651391,1352422279870816","","","687699147533037","","",""
"850977498591612","1102284383103447","DHS Economic Security Administration (ESA) Service Centers - Fort Davis","","","","38.899854","-76.996379","1096380639922060","598028639348599","","1108259875674319","1281663538200725","","",""
"849213479290179","876886021673283","McKenna's Wagon 15th and K Streets, NW","","","","38.9024168","-77.0345695","1298850689126022","839546521594442","","1179944668219162","874939942828607","","",""
"785890152776040","1222701888984669","Barracks Row Drop In Center","","","","38.8798611","-76.9951445","637799341696955,1161698203083101","1311734614958207","","","1135534218061193","","",""
"789780848857990","1296086003080295","Nourish Now","","","","39.0932336","-77.1357204","699332863961289","1006591780834143","","","1300764722949681","","",""
"813552424554778","1151840654132771","HSC Health Services for Children with Special Needs, Inc.","","","","38.9040276","-77.0324282","","1156892343181937","","","964748335045437","","",""
"819741028296646","917755116346392","NLSP Headquarters","","","","38.9091966","-77.0064165","1084455155861412,1114942083297484,1125858260716274,886500049202807,1236006015638372,1200983719344738,811112269491730","1231521383051622,925481472586692","","578413778188343,949146033103041","658580381720705","","",""
"818731653276709","1048888394985463","Riverside Healthy Living Center","","","","38.897302","-76.925709","595082261115094","803544912223819","","","991176644412035","","",""
"834696315742469","758358330691109","Contemporary Family Services - DC Pennsylvania AVe","","","","38.8686395","-76.9578338","924549516555160,1015257402861824,1200612658418419","1275875687653401","","1338861885601252","1108283652460531","","",""
"833804515841086","585623863455965","National Baptist Memorial Church","","","","38.9271214","-77.0360257","1257701331454062,770158427613270,642098651199985","1264076541077279","","1204202332990496","860655703010429","","",""
"841012551878129","1206510419155059","Bread for the City NW Center","","","","38.9103106","-77.021587","619060926571379,634163805498241,1038206932789964","1352422279870648","","1338861885603859","852256433731164","","",""
"844015447975705","960893870849573","Nineteenth Street Baptist Church","","","","38.9467007","-77.0369714","878241423610257","1048242169885571","","","871291920225502","","",""
"843887752849047","667513392468817","Yachad","","","","38.9977415","-77.0304159","569553997851039,787172371237208","1352422279870633","","1338861885603986","591926459523505","","",""
"851341569805212","949759665008692","Wendt Connecticut","","","","38.9434867","-77.0626075","635109381708667,592501622177001,784048807434548,603541148832875,543129663940995,821743187538963,1207508787914960,585243045568447,1262777533509176,1272667351561003,900958041480936,1213896805616958,1280595935871142,922272298366059","902437860112224,1051806239516021","","","921726586005599","","",""
"852062736759123","1119343755243480","Manna Food Center Main Office","","","","39.0577748","-76.9696618","1267670024992885","761730627522865","","861483017428291","975281860908132","","",""
"800069869376535","1203024767725850","Rapid Rehousing and Employment Teams","","","","38.8438596","-76.9992043","","846422979621264","","","807937964671680","","",""
"816235551756131","790090664353865","Legal Aid Society of DC - The “Big Chair”","","","","38.8659856","-76.9897776","617717048691003,761788898992773,973325735749516,1245717986328193","782772375690533","","1338861885602816","584258227889674","","",""
"812782874544268","1203024767725850","The Triumph Short-Term Family Housing","","","","38.8280384","-76.9985976","739062573866794","829562966078392","","","1284755060446173","","",""
"829909214250667","1091742936273498","Engine 27 Station","","","","38.9010619","-76.9432613","1278346715900586,608659423860858","1321692184504514","","","1272150847933701","","",""
"827068480481455","940973163563518","Anacostia/Southeast DC","","","","38.8658071","-76.9858852","1279930862215019","1226769545722069,760013196228008","","985065153697255","973287636548557","","",""
"850095150902601","0","Gaithersburg Middle School","","","","39.1440046","-77.1877863","1291646983149791","","","1303155790465875","1222560982119785","","",""
"853629829456714","0","DC Action for Children","","","","38.899112","-77.0221334","768947684418255,1044391885826553,943628495908545,1053662246534838,972287284892047","1165271968937872","","1124761200952623","819202547155168","","",""
"854230368107837","1288114944946075","West End Library","","","","38.9038978","-77.0506151","975549781096583,596697894718349,944525862208782","635968293558987","","","1290991526110391","","",""
"854967346211154","619974574898067","Headquarters","","","","38.9007004","-76.9429256","1225103848906322,1139491183429250,834684082852945,1261259812177504,971894815669980,795879638840285,623904786582994,1243311965925842,1202321397052978,1235224978747922,937153699338620,1109535799611317,1084038513265975","1244051999348200,881725280593154","","","1117577151026544","","",""
"865540109803591","1091742936273498","Engine 26 Station","","","","40.7531409","-73.9903459","1278346715900586,608659423860858","1268374693593038","","","668717042532154","","",""
"867088492370349","1102284383103447","DHS Economic Security Administration (ESA) Service Centers - Congress Heights","","","","38.899854","-76.996379","788331982799867,1096380639922060","1165380776647481","","","978180405447467","","",""
"867480542956619","0","SOME Clinic","","","","38.9082416","-77.0110598","907038865795598,586068010954858,1167108992028451,935921848165742,868294682470679","828720521624019","","1338861885603033","1105631318690559","","",""
"825613990987555","1126515358200105","WLCH Main Office","","","","38.9167416","-77.0283685","630264519658509,874630142674226,857918942159858,1108750269140523","801558020367834","","1338861885602435","632887211171682","","",""
"825454741717939","1278194418924146","1800 M Street NW Washington, DC 20006","","","","38.9051408","-77.0423239","827405714878337","929204956121811","","","1251010419994778","","",""
"832529372572869","1315578558618439","Youth Prevention Center: Wards 3 & 4","","","","38.9603613","-77.0846863","936010727694695","737180542817005","","","660579084943518","","",""
"834036632030985","901970914472025","YMCA Arlington Tennis & Squash Center","","","","38.8873978","-77.1020863","","923761408675313","","1338861885601334","1111486004109298","","",""
"836560118683353","1048888394985463","North Columbia Heights Green","","","","38.9312805","-77.0278062","1258369939351491","605405418135498","","960200377777827,1121063268456658","955556279982214","","",""
"840736701093471","796592710173553","305 E Street NW Washington, DC 20001","","","","38.8963228","-77.0155925","1012800321913877","1184501601994959","","","1228978427308940","","",""
"858152413289374","0","Location based on service","","","","26.1476153","-80.2854847","","","","","","","",""
"868028245496928","0","1355 New York Avenue NE Washington, DC, 20002, US","","","","38.9151173","-76.9856601","","","","","","","",""
"873890719454689","921466109394130","Providence Health System","","near Brookland Metro Red Line","","38.9437638","-76.9915731","","1352422279870781","","1338861885603077","1347874758673705","","",""
"882633779098622","0","810 5th Street NW Washington, DC, 20001, US","","","","38.9003071","-77.0191581","","","","","","","",""
"882293888224112","901970914472025","YMCA Arlington","","","","38.8871947","-77.1013213","1142869830287216,609764906879432,793641507311678,1232646715498091","1172177232023251","","","1347874758673711","","",""
"818197734902999","","500 K Street NE Washington, DC 20002","","","","38.9028335","-76.999142","584221387739490,755893450919058,849877675917053,926086262623139,953571703501099,1098453015435360,1312648219687403,1342355454259613","1352422279870682","","1338861885601221","1193727390444096","","",""
"826158382123021","917755116346392","NLSP Southeast Office","","","","38.8732232","-76.9719346","1084455155861412,1114942083297484,1125858260716274,886500049202807,1236006015638372,1200983719344738,811112269491730","1231521383051622,1247225331194827","","578413778188343,949146033103041","1020202703802817","","",""
"842889096789965","1091742936273498","Engine 29 Station","","","","41.8305292","-87.6421817","1278346715900586,608659423860858","830911807602267","","","1253722494546089","","",""
"857483351214468","1203024767725850","Girard St Apartments","","","","38.9256492","-77.033103","605385202624201","620158677580757","","","783095640816156","","",""
"869647738071923","879684021850075","Vida Adams Morgan","","","","38.9230553","-77.0444604","826324408184019,743196443052437,1188616906512182,1235579050212858,777147158438789","751061458384755","","","948986432487608","","",""
"871232328119150","623807648086762","Courtney's House - PO Box","","","","38.9052763","-76.9815877","","","","","1101868859014899","","",""
"877576876041734","1091742936273498","Engine 12 Station","","","","40.0267313","-75.2264196","1278346715900586,608659423860858","1112712309802840","","","1136676875598876","","",""
"879688258127018","786496092449135","714 G Street, SE WDC 20003 (Adminstrative Office)","","","","38.8815002","-76.9953363","727869968996425","760850258908085","","","908399778811072","","",""
"890802848970199","1048888394985463","Marvin Gaye Greening Center","","","","38.8993118","-76.9282047","1173093445425515,1258369939351491,595082261115094","605405418135498","","633329365497284,899094628750656","1100885354339948","","",""
"891065803273009","0","DC Healthy Families and DC HealthCare Alliance","","","","38.974253","-77.0137073","988299332485221,906941638249299,1128952488713927","1315928843228750","","","615559195571512","","",""
"834393407905740","992550837539148","Anacostia Big Chair (Office)","","","","38.8659856","-76.9897776","854557082490435","1080998373720902,1157571163600573","","1289363777325532","1185229150152167","","",""
"838706856391599","0","FEMS CPR Class Location","","","","39.1197001","-78.2009463","1204094393733512","","","","1154964431958725","","",""
"849014976212155","1160038998115387","Valenti House","","","","38.9266905","-77.053019","899717824024978,1286937248151879","","","","686044100917049","","",""
"849821356417378","1091742936273498","Engine 33 Station","","","","40.7269635","-73.9925105","1278346715900586,608659423860858","1309171874179001","","","594746745000072","","",""
"853177830631548","1203024767725850","Hope Apartments","","","","38.8373474","-77.0030738","1003036537750667","1133308717989660","","","838664629382559","","",""
"848643167597481","1284952943863665","Unity at Federal City (CCNV)","","","","38.8959878","-77.0132442","637056281967653,641492455035039,797730088708586","1352422279870633","","1338861885603303","801363455011364","","",""
"855494369304069","966440815617344","Paramount Baptist Church","","","","38.8321096","-77.0002617","","1106241836882097,723557262248714","","","572201961943469","","",""
"877840974751997","1235669446637932","UPO Administrative and Hotline","","","","38.915064","-77.0164135","869422229117923,773172814806209","815987000661681","","924248614472998","962503597996582","","",""
"897641479895673","1048888394985463","Josephine Butler Parks Center","","","","38.9224819","-77.0349022","1246702555861620","605405418135498","","933911626306222","770544571990235","","",""
"898004780647297","1203024767725850","Family Health and Birth Center","","","","38.900787","-76.9780775","573712074661708,915604912347301,1086669106439677,621585086191000,1185359834982349","1290441749934994","","626094046542917,620291766917896,805238896874501,629733318259269,1261898329520826","1230176419964750","","",""
"840683017480302","1193385899950220","First Baptist Church of Deanwood","","","","38.9031079","-76.9379738","1191745074402257,635982208196027,1179791140220795,1229999806342320,1179146027456024,857757181402658,790000784900182,905929309244389,890827452085799,842898274944169","1072093385240767,1251476863987863","","","1076830583018477","","",""
"841663889311858","970698645664636","1100 4th Street SW Washington, DC 20024","","","","38.8776018","-77.0173133","1277730428780686","1223134124049564","","","1192742655334915","","",""
"839573866990556","","Bread for the City NW Center","","","","38.8662494","-76.9810927","598893344627449,619060926571379,619428544473590,659284177800711,830825158082806,870510285799257,1193500689688597","858170932168553,763321039369095,11931756170454991352422279870633,1352422279870633,1352422279870642,1352422279870633,1352422279870633,1352422279870633,1352422279870633,1352422279870633,1352422279870646,","","","1347874758673673,1347874758673673,1347874758673673,1347874758673673,1347874758673673,852256433731164,","","",""
"852667560851101","0","2 18th Street SE Washington, DC 20003","","","","38.8895084","-76.978759","","1320256128235256","","","738592901369928","","",""
"859883434612658","909886281557711","4900 Puerto Rico Avenue, NE Washington, DC 20017","","","","38.9472222","-76.9994444","","","","","","","",""
"870176486464739","1198399473786797","1667 Good Hope Road SE Washington, DC 20020","","","","38.8655348","-76.9797426","1258206762105884","1150870558073575","","1338861885603898","645630295187396","","",""
"885249502385725","876886021673283","2114 14th Street NW Washington, DC 20009","","","","38.9185075","-77.0323833","","1181986088272447","","","1233218684353968","","",""
"893470451792465","1077524447531259","MD Office - Family and Medical Counseling Services, Inc.","","","","38.8981254","-76.9053184","617802974901710,827423614142820,843417621771816,915801395995557,998818821487302,1005856083111610,997382439625145,1048725052232264,1102573292657410,1191828341135162,1350703837531705,1350703837531706,1350703837531708,1350703837531709,1350703837531710,1350703837531707","1352422279870633","","1338861885602425","1347874758673672","","",""
"891308792501399","765268136875870","50th Street Family Program","","","","38.8837532","-76.9307709","1246421144702219","919692190244593,931410088645967","","","889756482266853","","",""
"891549215171790","1275681929536705","First Rising Mt. Zion Baptist Church","","","","38.9070032","-77.0203979","786696636711619","936575749678024,1272082521328526","","","563131596144489","","",""
"908942274584388","1121342754860910","Main Hospital","","","","38.9271267","-77.014524","583905742719734,631582174906714,681568772199807,876118989495452,890516898015838,1093722312624410,1112712465466061,1095621090051578,1330489680518823","1109642130925841,1352422279870817","","1338861885603482","1069203720699078","","",""
"910674112866949","901970914472025","YMCA Ayrlawn Program Center","","","","39.004646","-77.1172205","741287798283565,793641507311678,1232646715498091,1261952699824933","686876711128986","","1338861885601336","758769305327957","","",""
"855789547158426","0","1876 4th Street NE Washington, DC 20002","","","","38.9150389","-77.0008916","","627241711055030","","","901235817581522","","",""
"888565255284134","1091742936273498","Engine 19 Station","","","","40.0387662","-75.1711803","1278346715900586,608659423860858","1114336771577497","","","826078683584665","","",""
"909337693416412","808240584407061","Early Learning Center","","","","38.7642237","-77.0800219","1133566646559856","1242839866303012","","780584811718725","1208049298650593","","",""
"861950181964621","1.0588928349923E+33","Greater Washington Urban League","","","","38.9269718","-77.0320234","1241314019207000,969104577757425,598047692449891,874713157662589,977353834463418,565370307901606,659435743428113,1231068953747206","1135869268365723,1296251303907751,1135764345852302","","953091599361984","1309544141702061","","",""
"896075604878271","0","19 Eye Street NW Washington, DC 20001","","","","38.9022797","-77.0094142","","1121679495003948","","","","","",""
"918369086580372","0","4713 Wisconsin Avenue NW Washington, DC, 20016, US","","","","38.9513627","-77.0805794","","","","","","","",""
"918553319355477","0","Gorlitz Kensington Club at Parklawn","","","","39.0588554","-77.111526","","639520656814563","","911518512626244","633831411141650","","",""
"933666460806255","1293547606068658","1310 Southern Ave SE, Suite G082, Washington, DC 20032","","","","38.8358125","-76.9850259","848660009135175,942680278683430","1352422279870875,1352422279870876","","1338861885603707","1288449182200752","","",""
"895829905770410","1311337308136967","LAYC - DC Safe Drop-in Center","","","","38.9282971","-77.0357794","990789256930274,954262853935362,1219445943923328,1242062893800378","1218674683375495","","1338861885603433","1124118217580659","","",""
"898537800432105","1284952943863665","Brentwood Health Center (Ward 5)","","","","38.9220075","-76.9895323","637056281967653,1188051468871668,797730088708586","661172727532291","","1338861885603304","1111523833465987","","",""
"920110206749977","937130544214038","Jefferson Academy Family Support Program","","","","38.879881","-77.0229366","880540849737772","815051675815970","","1150989024210050","907889296977159","","",""
"924308059712002","1351080129222819","1204 Third Street, NW Washington, D.C. 20001","","","","38.9061005","-77.0155587","857845196225447","","","","828783992646683","","",""
"940212538195830","901970914472025","YMCA Silver Spring","","","","39.0151225","-77.0140424","609764906879432,1142869830287216,1232646715498091","826261229525001","","1338861885601337","1171342361002389","","",""
"935244522535810","1288114944946075","Parklands-Turner Library","","","","38.8461308","-76.9810846","975549781096583,944525862208782","928835842320067","","","793294459218082","","",""
"883870204820767","1187309405282204","Mazique at Tyler","","","","38.9063037","-77.0095301","882832254990502","1126681676431855","","","958202497334809","","",""
"901570423713957","1117145062751748","Mom's Meals Corporate Office","","","","41.6742052","-93.5575138","","643337118990625","","763886287602693","1214858041785621","","",""
"910542962335929","902975658133732","Administrative Office - Chancellor Williams Learning Center","","","","38.9169963","-77.0002842","","1238591955779914","","886088290054048","894843846728328","","",""
"909412769598597","1288114944946075","Anacostia Library","","","","38.8659805","-76.9785383","975549781096583,596697894718349,944525862208782","1034077089191792","","","1061063147389149","","",""
"920613426512187","901970914472025","YMCA Calomiris Program Center","","","","38.9453828","-76.977759","1232646715498091,1261952699824933","1280513272736158","","1338861885601338","920336761856377","","",""
"929361885175005","1284952943863665","Cardozo High School Clinic","","","","38.9280998","-77.0329341","637056281967653","","","","1163433271003395","","",""
"935485129696113","1284952943863665","Unity at N Street Village (Ward 1)","","","","38.9074096","-77.0312881","637056281967653,641492455035039","","","","1083435186659207","","",""
"890225932378329","1288114944946075","Southwest Library","","","","36.514698","-94.61137","975549781096583","1126024346389387","","","913104154166882","","",""
"897334286466946","0","Max Robinson Center Pharmacy","","","","38.863552","-76.9913506","941820443389996","","","","1178965663078874","","",""
"893134611210108","1280943812182660","Family Ministry Center","","The Family Ministry Center (FMC) provides food, clothing, toiletries and household items to local families in need","","38.9305803","-76.9591751","795565312115643,1188657221119765,897674219161316,1074220347849802,1275451737359298","1115681868338239","","","774296813552596","","",""
"940988880402930","643509042901798","Pathways to Housing","","","","38.9249975","-76.9938723","594081408024759,833463361083754,998910660786600,1003127511248132,1074501090125867,1131528502132736","798012227756605","","1338861885601364","1224004543230409","","",""
"944001764606866","937130544214038","Ionia R. Whipper Home Program Facility","","","","38.9226203","-76.9758499","741133276923057","815051675815970","","911370025578406","976431501861680","","",""
"950611509071482","901970914472025","YMCA Loudoun County Program Center","","","","39.1084738","-77.5653984","1232646715498091,1261952699824933","851605176249615","","1338861885601339","967215957608908","","",""
"898209455512951","589460886355658","Family Matters of Greater Washington","","","","38.901643","-77.0169534","1234290234728766","1286093295268135","","1058643087146379","1173290860033308","","",""
"906614178779692","901970914472025","YMCA Loudoun County Youth Development Center","","","","39.008539","-77.4102054","1232646715498091,1261952699824933","1352422279870694","","1338861885601340","900274267215840","","",""
"902244835227859","862024217673800","Calvary Women's Services","","","","38.8670496","-76.9880002","1205629989379688,569326528063960,863951605194335,757969294952221","596791445605697,1029280015850838","","1144543884264901","601018594378812","","",""
"909420379146552","1351080129222847","1133 North Capitol Street NE Washington, DC 20001","","","","38.9330903","-76.9931954","1142684843005996","759645456897847","","","1202515631751130","","",""
"945974432326654","1284952943863665","East of the River Health Center (Ward 7)","","","","38.8911503","-76.9375418","637056281967653,1085691019894863,1188051468871668,797730088708586,568848745429108","661172727532291","","1338861885603305","932050155937690","","",""
"903980033462689","1091742936273498","Engine 14 Station","","","","40.7379512","-73.9909949","1278346715900586,608659423860858","1124039217062205","","","836892954781691","","",""
"908423552645976","785453766981777","Psychiatric Institute of Washington","","","","38.9439293","-77.0779866","1280199390097891,927525077065562,1124712566709259,758678154564108,1154673214411715,856388971104613","570709070569781","","1238944967134645","1160436895350697","","",""
"924644263313960","1222701888984669","2804 South East Maryland Avenue Washington, DC 20032","","","","38.9056125","-76.9701718","","1311734614958207","","","","","",""
"932502301190120","879684021850075","Vida Brightwood","","","","38.9614631","-77.0315061","826324408184019,743196443052437,1188616906512182,1235579050212858,777147158438789","751061458384755","","","965942365087326","","",""
"942912384984463","0","1525 14th St NW Washington, DC 20005","","","","38.9104721","-77.0315736","","","","","","","",""
"943694322277545","818433220295218","Woodbridge Welcome Center","","","","38.6725007","-77.2617529","640700715075294","945011846421955,559258828473048","","759323921239655","817367619345113","","",""
"955494998117578","0","Northwood High School","","","","39.03571","-77.022065","872607427636909","","","969860092875916","934712078390448","","",""
"961940750930741","1155113646791146","Doctors Community Hospital","","","","38.9808223","-76.8651595","681568772199807","","","","876571612697860","","",""
"964800187171150","997628202730998","My Sister's Place Administrative Office","","","","38.9167234","-77.0336428","937636854587265","1289524741347851","","","1253829866049719","","",""
"966006768634994","0","4301 9th Street SE Washington, DC 20032","","","","38.8309819","-76.9895526","","1172138644991750","","","1218912876438090","","",""
"971101638249063","0","Sherman Avenue Corps","","","","38.9318393","-77.0256607","592279932552007","","","","1169245618273327","","",""
"970045820687110","1284952943863665","H.D. Woodson High School Clinic","","","","38.8968317","-76.9226764","637056281967653","","","","1190472785985307","","",""
"978435202763698","1253396496217869","Covenant Baptist Church DC","","","","38.8341778","-77.0086303","768420867308238,1117943724533651,567586810350969,762286614552841,1301180940473100","568081390715166","","","790302097009149","","",""
"979262089777285","0","Glenmont United Methodist Church","","","","39.0674965","-77.0593696","1291646983149791","","","1080969616942746","853483460126078","","",""
"923156776542484","1091742936273498","Engine 16 Station","","","","39.9767027","-75.2127604","1278346715900586,608659423860858","1210580535996678","","","1219909253043443","","",""
"953875575104132","1287549685614240","Mary's Center Fort Totten, DC","","","","38.9529194","-77.0074605","570279198497703,600311424612877,615102245607234,771415038083007,819105625973846,834474801815094,877408991389663,912682382040353,927583086660595,935391639326831,993277267161005,1054654881182092,1073305429578122,1049979809257514,1102764489219960,1149133594765984,1171041183154896,1222212212143407,1281873572081806,1330210073954058","975713005890497","","1338861885601404","904876794525199","","",""
"972271189983680","1121342754860910","Neurology at Montgomery County Outpatient Center","","","","39.1004309","-77.2104258","890516898015838","1330966782942998,1352422279870818,1352422279870819","","1338861885603483","786143725434715","","",""
"980257350381118","1151840654132771","HSC Outpatient Centers - Montgomery County Location","","","","39.10104","-77.191327","1251282400091320,739110335088609,1262432728139962,859784781707721,1216919996503351,768577653576222","1109526456712488","","","685743545045067","","",""
"990336044058622","1091742936273498","Engine 5 Station","","","","33.4777473","-112.0416913","1278346715900586,608659423860858","1310251286171666","","","933661659739848","","",""
"990754403473385","779339057787762","Piney Branch Elementary School","","","","38.9822809","-77.0093952","877165496793556","737091514062920","","","876562735540483","","",""
"959526986815629","0","1300 First Street, NE, 2nd Floor Washington, DC 20002","","","","38.9075083","-77.0063357","","1146495953663471","","","922334881715780","","",""
"957991424832394","0","170114th Street NW Washington, DC 20009","","","","38.9127993","-77.0315736","","1185225575410111","","","","","",""
"970983517110031","1169767322641878","HCS Ward 7 Housing Empowerment Center","","Operating out of the Antioch Baptist Church.","","38.9049824","-76.9282583","","1352422279870725,1352422279870726,1352422279870727","","1338861885601712","630045920855590","","",""
"967598687864523","1288114944946075","Francis A. Gregory Library","","","","38.8648666","-76.9542161","975549781096583,596697894718349,944525862208782","881290885953231","","","1329526304224045","","",""
"982525680938497","1263332778268621","50 Irving Street NW Washington, DC 20422","","","","38.9286058","-77.0105649","836888666804197","1164110952382008","","","907362716425449","","",""
"988814873768650","876886021673283","Martha's Table at the Maycroft","","","","38.9269851","-77.0349922","667387929525624,905712024453663,810458383121333,925876618282340","839546521594442","","575335889760211,927004175290165","1246699983418480","","",""
"991046422392107","1287549685614240","Mary's Center Pharmacy","","","","38.9392032","-77.0255908","561831919465625","1257181434931228","","1338861885601405","750182888138367","","",""
"991654914903385","901970914472025","YMCA Anthony Bowen","","","","38.9194299","-77.0311521","609764906879432,607057383679661,811588311148333,1142869830287216,1232646715498091","1278878139380788","","1338861885601341","736104421703506","","",""
"995487732055408","1091742936273498","Engine 18 Station","","","","41.8645066","-87.6559934","1278346715900586,608659423860858","977115125903347","","","1208734333912040","","",""
"999180107217935","1151840654132771","HSC Outpatient Centers - Prince George's County Location","","","","38.9511541","-76.8342806","1251282400091320,739110335088609,1262432728139962,859784781707721,1216919996503351,768577653576222","1132773036383590","","","1255844164471719","","",""
"995317546520269","846586624529740","Women's Collective","","","","38.9177239","-76.9767439","616878093146275,1273412412302024,961847087578752","807471270870129","","1099680579593890","1078609584084302","","",""
"941990903583859","1284952943863665","Unity at Downtown BID (Ward 2)","","","","38.9023011","-77.0285236","637056281967653,641492455035039","","","","1077119213782189","","",""
"969410719625582","1288114944946075","Bellevue Library","","","","35.1813977","-89.809137","975549781096583,596697894718349,944525862208782","1068215014993087","","","719391470274062","","",""
"994933787004216","1214030857673383","901 G Street NW Washington, DC 20001","","","","38.8986823","-77.024871","","912671284681139","","","875638713845162","","",""
"1005080088436254","0","1500 Galen Street SE Washington, DC, 20020, US","","","","38.8631616","-76.9836127","","","","","","","",""
"1012043594454236","638023829270297","A.P. Shaw Campus","","","","38.8515498","-76.9853227","","916276527780066","","","1134489757092192","","",""
"1012693305656130","1288114944946075","Martin Luther King Jr. Memorial Library (Central Library)","","","","38.8986134","-77.0242767","975549781096583,1173270438890110,596697894718349,944525862208782,1222229505999659","1132088699124837","","","752490816891424","","",""
"950665445636496","1121342754860910","Friendship Heights Outpatient Center","","","","38.9555205","-77.0834385","585745505232672","1246475069981458,1352422279870820","","","808918445165876","","",""
"957027288949288","0","Manna Market","","","","39.0577748","-76.9696618","1291646983149791","","","1290678395479250,1267435606144111,1315959235237163,1270082994611497,989271611200977","937253430158613","","",""
"957520333540238","1284952943863665","Stanton Road Health Center (Ward 8)","","","","38.8492438","-76.9806509","637056281967653","661172727532291","","","581241517123611","","",""
"967842377045809","757749510901012","Damien Ministries","","","","38.9304233","-76.9739148","583988896816188,1132229411458875,620569007037808,872951114825988","636488902942562","","943579112260499,1174733318796843","614116603807238","","",""
"967601719856630","1275858156254689","Seabury at Springvale Terrace","","","","38.9986427","-77.0212272","1210054763234429","793192253123968,863373375723229","","","1217002783652146","","",""
"977080631663121","1077851308935499","1627 K Street NW Washington, DC 20006","","","","38.9029117","-77.0376686","943521538490652,702296325594248,895263756347270,709150850319193,831230865396411,1220731362295108,1210758210255628","946365616469100,1066729741752517","","","877073319079269","","",""
"978433964868542","0","Downtown Cluster - AARP Self Help Office","","Downtown Cluster partners with AARP to provide the Self Help Office","","38.8964301","-77.0205524","","770218954747061","","1153058029513279","","","",""
"984130963161577","809725005994328","Dupont Park SDA","","","","38.871639","-76.947037","1133841580769830,651056882216531","794839335523778","","","600023869924758","","",""
"987681737906027","765268136875870","Mickey Leland House","","","","38.914732","-77.0177099","1089668903464175","760565278757437,647471512217416","","1092472091063330","864132208245056","","",""
"984407158340054","1058892834992313","DC Center for Independent Living – SE Satellite","","","","38.8294674","-76.9910825","969104577757425,598047692449891,874713157662589,977353834463418,565370307901606,659435743428113,1231068953747206","","","","896867524520940","","",""
"996758537763515","1265909136483839","3917 Minnesota Avenue, NE Washington, DC 20019","","","","38.8937514","-76.9495877","1236034161171034","","","","1000047601685886","","",""
"1018253357347462","1091742936273498","Engine 6 Station","","","","40.7099778","-74.0054139","1278346715900586,608659423860858","751594641558024","","","1096727323745989","","",""
"967529880147269","1222701888984669","Sasha Bruce - Transitional Living Program","","","","38.8839641","-76.9296229","829979157869352","","","","1327832724639079","","",""
"987580985223381","1288114944946075","Chevy Chase Library","","","","38.9907072","-77.0768765","975549781096583,944525862208782","705994150910452","","","650938280347091","","",""
"1005588549680598","1172656271433522","Spanish Catholic Center DC","","","","38.9327313","-77.0373987","1259262671692605,1115001618582576,1079413184215525,1266899795743681,1196312610753230,616328908124765","1352422279870776","","1338861885602911,1338861885602912,1338861885602913,1338861885602914,1338861885602915,1338861885602916,1338861885602917,1338861885602986","1262445634877042","","",""
"1006643802398414","818433220295218","Kreative Kidz Academy","","","","38.9975705","-76.9930849","1233124771884739","1352422279870717","","","1347874758673689","","",""
"1013220022014176","1309623395147627","300 Indiana Avenue Washington, DC 20001","","","","38.8943419","-77.0165645","691601468768441","850149252069185","","","1255733217977362","","",""
"1013981933889035","1087443224313487","2307 Martin Luther King Jr Avenue SE Washington, DC 20020","","","","38.8633444","-76.9915438","823996409566009","696940363672558,1045712042993666","","","595922845737405","","",""
"1020706673677182","802638496440415","Elaine Ellis MD","","","","39.0178048","-76.9197707","778121485505827,864041028832460,891245636047663,953570402846759,1048984129419777,1049005398980524,1134389546347902","1352422279870674","","1338861885601162","1181534981962548","","",""
"1021458214239224","1115745782915962","Sibley Memorial Hospital","","","","38.9365476","-77.1091966","1118257508626334,768069481383101","1182686505051799","","1338861885603310","606691178479516","","",""
"1035196061179073","1288114944946075","Shaw (Watha T. Daniel) Library","","","","38.9124475","-77.0222467","975549781096583,596697894718349,944525862208782","646466081040521","","","855414328374137","","",""
"1078875042301972","818433220295218","Multicultural Center (MCC)","","","","38.990764","-76.981483","1233124771884739,871369531788799,833348686999567,645620379335062,960670406610559,572649600558239,646181177473340,837177248603522,1049343334916651","1184578093873610,1310292948668779","","809271860001006,748290900302660","1271364189985979","","",""
"1080745784913482","901970914472025","YMCA Camp Letts","","","","38.8893928","-76.5293426","1261952699824933","766154485856891","","1338861885601342","1243421228505168","","",""
"1091227224514735","765268136875870","The Webster House","","","","38.9438264","-77.0329905","1126118557955040","1265146554354445","","1092472091063330","630319727634327","","",""
"1102714062099449","1158824400866164","910 Westminster Street NW Washington, DC 20009","","Test","","38.9146534","-77.0244324","1223508074452444","1191702661711519","","1338861885603890","1296962432755079","","",""
"1043993116448952","961854161533682","MedStar Washington Hospital Center","","","","38.9287881","-77.0143272","849020259682919","1352422279870685","","1338861885601242","820817860027881","","",""
"1044411535350668","1303478330484169","DC Central Kitchen Headquarters","","","","38.8954586","-77.0133543","720253176536744","1110274733413246","","","801363455011364","","",""
"1048770784971224","1234827091202817","Westminster Presbyterian Church","","","","38.8789526","-77.018258","857853579878864,754147676615710,929072757628683,1316670958147366,839695327342121,1096695050630138,1186669715768214,943806798890403,1122934207742346,1286870063123571","1290607971551229","","1196041280360314","637680055653175","","",""
"1053555574688978","0","1717 Columbia Road NW Washington, DC, 20009, US","","","","38.9248766","-77.0399625","","","","","","","",""
"1060230665027262","1148831835061989","Hillcrest - MLK Jr. Ave","","","","38.844288","-76.9985519","1287524810502357,1161898129373780,1012823920759090,623995531339898,1118072829940673,1118941099925179,1083170236781208,1257354181828621,914742928477842,1156322445305197,796791181677810,858888948104571,1265678209789686,594606264685919,757989986692540,1128704737609004,1272557250166706,1210250305509510,1217211341955511,1113342189645613,906124615204603,540866542533436","1352422279870633","","1338861885603054","641281670998932","","",""
"1092551085212094","9.6773741020642E+32","St. Stephen and the Incarnation","","","","38.9334824","-77.0357195","1223223123705521,646401850883937","","","","980902256958058","","",""
"1092715705970916","820630706542898","4125 Albemarle Street NW Washington, DC 20016","","","","38.9481931","-77.0816737","1244322314598060","925375982749248","","","1298660539385549","","",""
"1092756194618999","901970914472025","YMCA Youth & Family Services","","","","39.0126924","-77.0163263","","910352028410989","","1338861885601343","1067038842463788","","",""
"1096962324914778","744035004462843","Efforts from Ex-Convicts","","","","38.9079831","-77.0235439","1117364513670581,749482802649696,1275285193089089","949228272983280","","","927832223723960","","",""
"1101079556337049","0","SAMARITAN MINISTRY OF GREATER WASHINGTON: NW OFFICE","","","","38.9527298","-77.0358288","","","","","","","",""
"1104999420030021","1061004820715700","Mc Kendree UMC","","","","38.9319612","-76.971732","","804280432043299","","","1205010169244537","","",""
"1056414203994963","618821526959273","Hughes Memorial UMC","","","","38.8905358","-76.9254723","1105712633636720,660905682344295,745288994645838,856224619170449,572554560594709","1298721668049434","","","1106991030101545","","",""
"1068693490671334","1203024767725850","The Commons at Stanton Square","","","","38.8548975","-76.9844872","573712074661708,915604912347301","893086851634791","","993133799161870,896372222754824","1257555204587862","","",""
"1069239089485198","","Community Connections - The Center for Families and Children","","","","38.8938413","-77.0203724","859847606001066,1311323215134581","1352422279870710","","1338861885601710","1178793581455590","","",""
"1078276338322764","1012774856380370","Far Southeast Family Strengthening Collaborative - Administrative Office","","","","38.8659856","-76.9897776","949725297401271,763106931954514,678336489867060,1102032278098336,1277554928342075,954270986825825,618510425235763","828534605497883,1236412898692410","","1338861885603617","1185229150152167","","",""
"1085137251641611","1126607081226356","JSSA Silver Spring","","","","39.0183093","-77.0446628","869411193408138,637788539576170","1231443874540010,818610335474984","","1099102647584911","1272270265454257","","",""
"1061235909513521","1078800059400169","Department of Aging and Community Living","","","","38.9028886","-76.9991859","","1352422279870683,1352422279870684","","1338861885601222","783162154650070","","",""
"1062849514501246","803246513313364","801 Buchanan Street Washington, DC 20017","","","","38.945785","-76.993702","865858690637525","1032393853403968","","","975514710645118","","",""
"1076247615804558","540732570709574","Northeast Site (Ward 5/Main site)","","","","38.9208058","-76.9777175","833282615728356","1352422279870878,1352422279870879","","1338861885603733","842704873804626","","",""
"1077472017140637","1172656271433522","MD Spanish Catholic Center","","","","39.056305","-77.049479","1079413184215525,544257595598049","1239229114627288","","1338861885602922","922203556759265","","",""
"1118017178735628","1288114944946075","Library Express","","","","43.7852361","-88.4056988","975549781096583,944525862208782","860482618489600","","","607841321991818","","",""
"1116308991917029","1209774179868983","Children's Law Center","","","","38.8965812","-77.0147134","956603811443415,892274678523551,882977120503000","1352422279870745","","1338861885603332","1178741888896067","","",""
"1118558741921381","1126607081226356","JSSA Northern Virginia","","","","38.8672169","-77.2364739","1206515011255222,1247441946122537,1189862050430597,842118695599527,596509168605852,1158805154331276,1249421918700941,956316316250592,943690370414778,1237618325820422,1330460837989046,869411193408138,609280054378490,822886605211738,1248465838378546,1176914771702299,637788539576170","1101005748395701,1139180973783304","","607260486529938,975413515685238","921349453832981","","",""
"1123778264785628","1288114944946075","Mt. Pleasant Library","","","","33.1609914","-94.9698738","975549781096583,596697894718349,944525862208782","1247682248307577","","","895461555540917","","",""
"1127198971919902","758358330691109","Contemporary Family Services - DC Minnesota AVe","","","","38.8763069","-76.965516","924549516555160,1015257402861824,1200612658418419","1275875687653401","","1338861885601253","1193719191555857","","",""
"1089626392255953","1140779289251086","Crowder Food Bank","","","","38.9198591","-76.9981019","783958686086923","1267351968914473,1167803343546664,624586719112928","","924131380906668","588096487639420","","",""
"1091354780708194","1203024767725850","Mississippi Avenue and Archer Park Apartments","","","","38.8403609","-76.9871985","","785075185786370","","","623980338427834","","",""
"1091301498101680","1121342754860910","Neuropsychology at Montgomery County Outpatient Center","","","","39.1079986","-77.1877863","585745505232672","1016548724212832,1352422279870821","","","730523059624038","","",""
"1089431432526337","901970914472025","YMCA Prince George’s County","","","","38.9803369","-76.7574595","1232646715498091","1258144831022858","","1338861885601344","791236860915802","","",""
"1091350492556485","1297467042568288","The United Church","","","","38.898035","-77.044573","1243657038645919","627977115724206","","875230198299264,1212024849753899","1347874758673670","","",""
"1102078052551645","758358330691109","Contemporary Family Services - MD","","","","38.9694937","-76.952895","924549516555160,1200612658418419","1352422279870688","","1338861885601254","1224194685885232","","",""
"1103297850067355","1222701888984669","Sasha Bruce - PASSAGES","","","","38.8514669","-76.9648686","1184021119607946","1291366300573340","","","1251667421607854","","",""
"1103047411510967","1315578558618439","Youth Prevention Center: Wards 1 & 2","","","","38.9277554","-77.0332829","936010727694695","1229125012382256","","","1114454487063148","","",""
"1102086906074425","0","DC 20011","","","","38.9502497","-77.0161436","","","","","","","",""
"1117640220112945","765268136875870","La Casa Transitional Rehabilitation Program (TRP)","","","","38.9363756","-77.0291455","911538558546594","846053195085750","","1092472091063330","670835715650638","","",""
"1125282502738313","940973163563518","Arlington/Northern Virginia","","","","38.8641779","-77.0816962","1279930862215019","1302923938383278,632750765830372","","1263556797936291","908923239757928","","",""
"1125441162012486","815771475001330","924 G Street NW Washington, DC 20001","","","","38.8979969","-77.025103","631128871825821,612333310679780","802443867007966","","","755465819143078","","",""
"1134258246707073","921180108977126","2601 18th Street NE Washington, DC 20018","","","","38.9237346","-76.9780775","846114903100076,769155518616587,815900335838427,989132061763461","1100666782984005","","","641583846560761","","",""
"1094898373646373","1235614981567924","La Casa Transitional Housing","","","","38.9363756","-77.0291455","1121716306827418","846053195085750","","","670835715650638","","",""
"1096322006760905","1288114944946075","Capitol View Library","","","","38.889054","-76.9296774","975549781096583,596697894718349,944525862208782","795844597305597","","","899256974639291","","",""
"1098092408059985","1288114944946075","Northwest One Library","","","","38.9039266","-77.0136058","975549781096583","1079677800252129","","","628341810887409","","",""
"1114551742239605","802638496440415","Elaine Ellis DC","","","","38.9116973","-76.9339447","778121485505827,864041028832460,891245636047663,953570402846759,1048984129419777,1049005398980524,1134389546347902","1352422279870676","","1338861885601163","1084485258726986","","",""
"1132814241177816","973627436997143","Mayor's Office of LGBTQ Affairs","","","","38.9175547","-77.0324732","576738057093594","1271584803828941,1280860897671998","","1291691688879158","583943994142484","","",""
"1142163554566402","918523571271755","SOME Main Office","","","","38.9088439","-77.0114197","611731051197054,786777987046972,885911212444742,978823191463999","828720521624019","","1338861885602989","843557435036966","","",""
"1142780236844538","0","P.O. Box 34125, WDC 20043","","","","38.9071923","-77.0368707","","869180963768724","","","","","",""
"1146850101014457","1287549685614240","Mary's Center Headquarters, Adams Morgan, DC","","","","38.9210225","-77.0397601","570279198497703,615102245607234,771415038083007,834474801815094,877408991389663,912682382040353,927583086660595,935391639326831,1073305429578122,1049979809257514,1102764489219960,1171041183154896,1222212212143407,1330210073954058","1352422279870700,1352422279870703","","1338861885601406","948876011596931","","",""
"1117622155194782","765268136875870","Blair House","","","","38.9010406","-76.9970221","647744623033900","714043165270002,547284703219745,926719398617836","","","875459002132828","","",""
"1130366462113469","765268136875870","Coalition for the Homeless Headquarters","","","","38.9041649","-77.0293694","","1052461018117943","","","1098356156192294","","",""
"1143767333255844","1091742936273498","Engine 13 Station","","","","41.8868675","-87.6201779","1278346715900586,608659423860858","894795278933148","","","868990014453285","","",""
"1154007819992809","650527153533264","United Medical Center","","","","38.8359393","-76.9849936","657392890209506,978362959076613,650975829022117,1184398102096366,569658380553026,778216401015612,658900524855990","853258537403223,795305573959481,1253458613028760","","","1253142566681779","","",""
"1156298037800579","615135989448834","D.C. Department of Employment Services (DOES)","","","","38.8970435","-76.9478322","947021731311865","888249723161367,979599616798183","","848052825920285","813107616664956","","",""
"1094057138771894","1288114944946075","Northeast Library","","","","39.1065709","-94.5112888","975549781096583,596697894718349,944525862208782","825698509389836","","","600722845496203","","",""
"1095290768316947","0","4065 Minnesota Avenue NE Washington, DC 20019","","","","38.8964832","-76.9473145","","1060506027185222","","","539337396364683","","",""
"1099219791360979","890960937452506","MedStar Georgetown University Hospital","","","","38.911464","-77.0751693","874318868056401","1352422279870709","","1338861885601420","1067394282645998","","",""
"1101683690019372","1222701888984669","Sasha Bruce - PHP","","","","38.8638486","-76.9797426","1200334283969211","634316335663560","","","1282039935063191","","",""
"1117118492901641","779339057787762","Adventist Community Services of Greater Washington","","","","38.9917266","-77.0117802","1060415349793008,1156215543966047,965942393503991,645694919920041,1262506217054044,1050554025156180,929859824925404","879161402200519","","1224864827208470","1105400030033279","","",""
"1118601745413208","1084960450614161","Douglas Knoll Clinic","","","","41.2057583","-96.088979","1128788656579219","559390238010481","","","1180774715221118","","",""
"1116757915659329","880448544501253","LCDP 15th St","","","","38.9258922","-77.0352621","948838805132982,952194300736035,1281848063989826,1095945124402776,841673521697595,1099208107604478,1252999982476801,770730332028956,1171107809657948,1182835937166583,1101657033380655,1095497824033311","907177707318666,1258650829388896,1329943287198428","","1338861885603262","677738893504468","","",""
"1129396857159702","1288114944946075","Palisades Library","","","","34.0439976","-118.5251262","975549781096583,944525862208782","1230985268000782","","","1269109743051226","","",""
"1137892633327650","644590666868771","1628 16th Street NW Washington, DC 20009","","","","38.9121255","-77.0370901","1228132735417724","987188839323827","","","1149910639608595","","",""
"1135336670475675","1046365080869798","New Endeavors by Women","","","","38.9074616","-77.020665","1239257983465773,1229847373733252","814559429952530","","","854668416527336","","",""
"1139106965939659","1280943812182660","Central Union Emergency Shelter","","","","38.8987292","-77.0111112","1135547983717044,659175264242163,1136496312754304,638870700632782,929579985962021,1156988661828912,1333335607705891,911241036881136,1317811461953516,1266964744981497,967262538035937,914571037644850","1115681868338239","","1243886507260834","1065211799205229","","",""
"1167767752140850","1284952943863665","Unity at Friendship Place (Ward 3)","","","","38.951352","-77.0805609","641492455035039,637056281967653","","","","1214088150223601","","",""
"1173183937901099","1280943812182660","Administrative Office","","","","38.9705143","-76.9139774","","1115681868338239,649917070803582","","1029407439231359,1126668816152463","1168340208506307","","",""
"1115108116176359","1091742936273498","Engine 30 Station","","","","41.9023137","-87.6672577","1278346715900586,608659423860858","1151399440563980","","","615343807301958","","",""
"1133193776558121","0","301 365-4480","","","","0","0","","","","","","","",""
"1129247879259176","1091742936273498","Engine 23 Station","","","","38.8984593","-77.0476344","1278346715900586,608659423860858","685475234090978","","","815678797015870","","",""
"1133890153315802","765268136875870","Park Road Transitional Program","","","","38.9307935","-77.0305165","772373540242764","659031397106285,1149894742840771","","","899930684274562","","",""
"1134996153077734","618748399513081","A Wider Circle Center for Community Service","","","","39.005589","-77.0487557","825698319066110,858728937671038","747530458759027","","1338861885604015","569226787685065","","",""
"1140130619656796","1315578558618439","DC General Hospital Compound","","","","38.8828164","-76.9772039","606430121530643","973346518083317,882109019068289","","","865953449064835","","",""
"1136470398726733","940973163563518","Skyland Workforce Center/Southeast DC","","","","38.86047","-76.9690317","1279930862215019","859866299193791,1293912126788785","","985065153697255","1088782696848062","","",""
"1142441892698286","619974574898067","Taylor Street","","","","38.9410507","-77.02775","1260729084144993,1226514003731413","1158800870011801,680363538565742","","612571578882282","1165771453663151","","",""
"1159353858034099","0","Patrica Handy Place for Women","","","","38.900331","-77.019219","912868472017219","1352422279870633","","1338861885602863","881121860903887","","",""
"1168148392185022","1121342754860910","Northern Virginia Outpatient Center","","","","38.8684229","-77.2357554","585745505232672,583905742719734,876118989495452,1093722312624410,1330489680518823","1158493544476192,1352422279870822","","","910588942573711","","",""
"1168801998093900","1288114944946075","Tenley-Friendship Library","","","","38.9477257","-77.0798619","975549781096583,596697894718349,944525862208782","544641670975391","","","766037671807264","","",""
"1170496916271417","1001381268835594","Ayuda Administrative Office","","","","38.9029168","-77.0327206","1108270050321045","11442884887483591144288488748359,1144288488748359,1144288488748359,1144288488748359,1144288488748359,","","","1161089217309530","","",""
"1117618456680683","1091742936273498","Engine 7 Station","","","","40.7154018","-74.0061306","1278346715900586,608659423860858","1177311797726755","","","856199027563788","","",""
"1120606829940602","1142792103155243","Marshall Heights Community Development Organization","","","","38.8938648","-76.9471832","1265294207456017,813818370182701,1177461710635594,1304753692724881","1007137721349348","","1169394852198293","1255270432383739","","",""
"1120053867178665","1143076176825121","Whitman-Walker Youth Services","","","","38.884579","-76.99675","978561179172265,876544332128595,992280999729878,850067707222254,640682707343284","1352422279870633","","1338861885601223","558771591661145","","",""
"1123231976798921","0","Zoe's Doors","","","","38.922282","-76.993694","762627227359602","","","","1341879210766190","","",""
"1160077532191340","1058892834992313","DC Center for Independent Living - Main Office","","","","38.9236657","-76.990551","969104577757425,598047692449891,874713157662589,977353834463418,565370307901606,659435743428113,1231068953747206","618473990534826,663123188337760,1129938377899457","","1338861885601681","886588147175165","","",""
"1171401871170354","1001381268835594","Ayuda VA Office","","","","38.8799516","-77.2353961","761729408560878,1108270050321045,1113729883287074","658416119153851658416119153851,658416119153851,658416119153851,658416119153851,658416119153851,","","","1161047433910831","","",""
"1176539345235800","0","765 Kenilworth Terrace NE Washington, DC, 20019, US","","","","38.900373","-76.9474721","","","","","","","",""
"1179563747654780","734905843461372","HIPS","","","","38.9004055","-76.9933526","822981725695134,808409696885770,604071251546446,1308810783033235","","","847014211103465,1338861885600893,1294752347514979","844556755902460","","",""
"1132222085127471","1091742936273498","Engine 21 Station","","","","38.9248538","-77.0422565","1278346715900586,608659423860858","1158115170488508","","","1109389476853030","","",""
"1146962447647430","1213518469346648","Barbara Chambers Children's Center #2","","","","38.9136368","-77.0221127","627561586053944,834804986562892,1153101336983128,1297938251275210","1256965892026432","","1338861885603705","1111150315058469","","",""
"1152589542728495","0","1333 N Street NW Washington, DC, 20005, US","","","","38.9075729","-77.0314836","","","","","","","",""
"1159744769911269","1284952943863665","Southwest Health Center (Ward 6)","","","","38.8772728","-76.9983719","637056281967653","661172727532291","","","787024441457406","","",""
"1160944456774158","0","1400 Florida Avenue NE Washington, DC 20002","","","","38.9005607","-76.9842427","","","","","845720882826941","","",""
"1191083453818915","0","651 Pennsylvania Ave., SE Washington, DC 20003","","","","38.8846136","-76.9967296","","","","","","","",""
"1141380228418615","811471160167819","Lorton's Attic, Thrift Store","","","","38.700939","-77.2116161","647876938997632","","","1094568191349687,1117440464367166","1008469785413423","","",""
"1155644945880700","765268136875870","Anacostia Road Apartments","","","","38.8747834","-76.9654987","1276572352527456","1052461018117943","","1092472091063330","806451458289654","","",""
"1163405927375948","680226054600238","2523 14th Street NW Washington, DC 20009","","","","38.9233108","-77.0315736","1096380712709757","806870939070966","","1338861885603951","1033661751080808","","",""
"1166119497090312","1084960450614161","Benning Terrace Clinic","","","","38.9003198","-76.9473635","1128788656579219","559390238010481","","","948106668374078","","",""
"1175190163226960","1287549685614240","Bernice Fonteneau Senior Wellness Center","","","","38.9336503","-77.023658","","1189639205230727","","1338861885601407","1236362403126770","","",""
"1178988249328078","558598955804152","Jewish Council for the Aging of Greater Washington","","","","39.0588554","-77.111526","933068702398710,789962433738515,1242086127856640,988423991733213,648998547696427,1017935677136641,665291739064632,991942780227581,623011102913209,1263144790142252,660686319121862,960770573404461,923927696574335,753350947911582,1114627657542591,1008410084982241,1098985564159984,846905885724829,1310979690934901,904936764071739,1262768275437970,826724564530855","","","","633831411141650","","",""
"1191044209171136","818433220295218","Wheaton Welcome Center","","","","39.0422653","-77.0528934","","945011846421955,897457933548600,1163868881985071","","1065665567847663","757866573934638","","",""
"1192687808287205","1288114944946075","Southeast Library","","","","37.9215778","-95.4016758","975549781096583,944525862208782","598405631139486","","","1169435514871045","","",""
"1204439644410266","1091742936273498","Engine 24 Station","","","","39.9369545","-75.1769475","1278346715900586,608659423860858","1108154365033397","","","1247783566206049","","",""
"1153279049261324","928333992201735","Mamatoto Village","","","","38.8940638","-76.9346425","704832527436297,800852356091403,1006868535209989,837150649376459","1189857685741304,1177666044577543","","1321496808052770,654621153104425","1274484805326305","","",""
"1156951251699636","1091742936273498","Engine 2 Station","","","","40.75682","-73.9709473","1278346715900586,608659423860858","971705485646754","","","1171338660943768","","",""
"1166859805809640","1277014247696961","FLOC","","","","38.8810939","-76.9881373","1185563905796881,1217517912625492","817448213696064,1179556796046409","","","738949392742485","","",""
"1172909242301924","650479626662564","NCCF DC Headquarters","","","","38.9253654","-76.9845781","963242266021755","1184962032433288","","","905037261346524","","",""
"1175999961148897","608190497391626","Nativity Shelter","","","","38.9633712","-77.0283348","1221652904126057","1197141445963888","","1338861885603882","798296889911424","","",""
"1178936106690461","0","New York Avenue Presbyterian Church","","","","38.8999882","-77.0311238","","","","","988356905203017","","",""
"1190288283777701","818433220295218","Rockville Welcome Center","","","","39.0981633","-77.1320616","640700715075294","945011846421955,1283716947329592,786636994934480","","1294106385917788","1271284297689559","","",""
"1198692764026642","901970914472025","YMCA Bethesda-Chevy Chase","","","","39.0100512","-77.1131358","609764906879432,741287798283565,793641507311678,1142869830287216","1296945786549621","","1338861885601345","602013012418112","","",""
"1207740090664609","0","DC Center for Independent Living – SE Satellite","","","","38.9004175","-76.9842107","","663123188337760,584179742880194,802780426682998","","","","","",""
"1210032943864131","558598955804152","Germantown Community Center","","","","39.1651892","-77.2855246","1262768275437970,826724564530855","1316447801383721","","611883390595454","1124243316484766","","",""
"1218401963055584","923928818796358","250 E Street SW Washington, DC 20024","","","","38.8828972","-77.014434","837604202154040,880643153888927,940893098849307,933051063868149,1171496076891511,1231073685933274,1203534029319840,1246366130479163","1116098433846421","","1338861885601682","1107370925309577","","",""
"1157647595052033","790090664353865","Domestic Violence Intake Center (DVIC) – SE","","","","38.8361605","-76.9842934","795647463619947","782772375690533","","1338861885602771","1161395795200773","","",""
"1160291369304648","1093139785713640","St. Steven Episcopal Church","","","","38.9334824","-77.0357195","1156130223734698,1096873514597287,1184758670431530,1275671248652557,1201069695813904,1253984981707388,1126445517023366,1156734654820399,1226032227700549,652787019720552,944570500482284","1308972173464210","","","980902256958058","","",""
"1182708981110979","1329764475795847","899 N Capitol Street NE Washington, DC 20002","","","","38.9010559","-77.0085403","990059361209852,985539150706956","1216806933209657","","1338861885602025","817796784415201","","",""
"1183173298558849","828308705468984","601 E Street NW Washington, DC 20004","","","","38.8964301","-77.0205524","635645258311778,643973730285080,805290013325766,982207553498582,954742655318156,1146427923405605,1108394531508208,1102203467116873,1122765390786822,1160836319132411,1205746962140909","931173517724084,639723068072357931173517724084,1352422279870639,1352422279870639,1352422279870640,1352422279870640,1352422279870643,","","","814164678263538","","",""
"1195204292292590","1321593994370513","Community Outreach and Development","","","","38.8738467","-76.9333971","1138627636801968,1169733605000890,1298470590884073,976249584318959,873315756007935,1238104857551012","1284225932067215","","1121761396617945","648313004102131","","",""
"1197859127148279","1316999943437051","OIC/DC Headquarters","","","","38.8378534","-77.0064932","","1278657417622868,1088107308667966","","","1208902727440044","","",""
"1199753303956769","901970914472025","The Children’s House at HUD","","","","38.883909","-77.02292","","1226678411668237","","1338861885601346","1300669729846678","","",""
"1216455345037992","1001381268835594","Language Services","","At Ayuda, we work to make sure that everyone can get help when they need it, regardless of the languages that they use to communicate. We partner with and work for a wide array of clients, non-profit organizations, legal and social professionals, and more. Use one of the links below to learn about our language access services, our partnerships, and our opportunities.","","38.9327082","-94.7019775","","11442884887483591144288488748359,1144288488748359,1144288488748359,1144288488748359,1144288488748359,","","","1347874758673672","","",""
"1231651602484835","0","Malcolm X Opportunity Center","","","","38.8448695","-76.9871775","936906190018086","","","","826590658453856","","",""
"1185094328556228","1275858156254689","Seabury at Friendship Terrace","","","","38.949086","-77.0824831","1210054763234429","1200503896234036,929172322087135","","","1094098920613069","","",""
"1205691016832902","1068988531733400","Covenant House Washington","","","","38.8435269","-76.9742231","1162872937044136,1099503418949118,656227428086310,890897735410541,767973914805055,1011096322447568,1109422900006648,631018985097612,605021814890791,951898939560579","1134958514650887,1172848424638721","","1287674050055454","1097680104175753","","",""
"1202618027693441","1287549685614240","Mary's Center Petworth, DC","","","","38.9392032","-77.0255908","570279198497703,600311424612877,615102245607234,786774420218226,775374911143656,771415038083007,819105625973846,834474801815094,877408991389663,912682382040353,927583086660595,935391639326831,937541358474144,993277267161005,1054654881182092,1073305429578122,1102764489219960,1149133594765984,1171041183154896,1222212212143407,1281873572081806,1330210073954058","1352422279870703,1352422279870704","","1338861885601408","1108677909528551","","",""
"1221541137308778","1247526031790659","Asbury United Methodist Church","","","","38.9019605","-77.0272552","1106022191121920,972396791405136,619838171879237","1072819491635928,984348128312206","","887709860440080","641354258894869","","",""
"1183169357401937","0","2700 Martin Luther King Jr. Avenue SE Washington, DC, 20032, US","","","","38.8480466","-76.9956251","","","","","","","",""
"1182283909073233","0","1725 Lincoln Road NE Washington, DC 20002","","","","38.9136032","-77.0073706","","559833184546723","","","965808119791153","","",""
"1199113598082869","808240584407061","Community School - Walt Whitman Middle School","","","","38.741506","-77.074185","","1174026290084055","","","1189128756720677","","",""
"1209862604521984","1091742936273498","Engine 10 Station","","","","40.7099022","-74.0125606","1278346715900586,608659423860858","839097988835862","","","623054338448014","","",""
"1216896137119914","651560814879498","Service Center Test","","","","38.9676741","-77.0004806","785748915877787","556928447868249","","1338861885604017","750305071337867","","",""
"1231381914283530","1169767322641878","Housing Counseling Services - Main Office","","","","38.9221357","-77.0396702","603580181050118,581474108798219,594569394092610,635411099042905,746078248071882,838177939625042,853929141214417,1020471555082436,1066076138766405,1080000450333930,1105850415319204,1279704727295628,1251041437322229,1296908548961437,1284579209460045","601992910461545","","1338861885601713","1311412862326621","","",""
"1249100999590019","808240584407061","Sacramento Neighborhood Center","","","","38.7210454","-77.1265692","636366666716828,712328327930380","899543859617326","","811766209891725,1080282319334964,1151842394063621","1170686671227481","","",""
"1190992226347185","951819432538468","Community Connections - Main Office","","","","38.8836013","-76.994593","606736767772085,785169150627540,823785251815168,945829836126554,1092296589947000,1150526426164419,1176207549830608,1206755076792649","841218777703776","","1338861885603234","747206662074907","","",""
"1189929308778517","0","3924 Minnesota Avenue NE Washington, DC, 20019, US","","","","38.8939203","-76.9514332","","","","","","","",""
"1193198730195892","638023829270297","Congress Heights Campus","","","","38.8427636","-76.9999917","1152526034865988,855368086683971","916276527780066","","","1159636085127658","","",""
"1193878881902253","1280943812182660","Lambert House","","The Lambert House provides transitional housing for up to 24 men transitioning from homelessness to independent living.","","38.8670327","-76.9796751","","586495561196370","","","1319227052535848","","",""
"1191500192034471","1121342754860910","Montgomery County Outpatient Center","","","","39.1004309","-77.2104258","583905742719734,876118989495452,1093722312624410,1135146593857359,1330489680518823","1352422279870819,1352422279870823,1352422279870824","","","792837578790856","","",""
"1205020948348418","0","The Sterling STFH","","","","38.8951311","-77.0313808","1227144157948013","","","","850376818416729","","",""
"1206435323040525","0","Homeless Services Program Office","","","","40.7053451","-74.011734","1164412528090303,1200468711293825","","","","1243219146160024","","",""
"1209346136301236","940993634917751","Food and Friends","","","","38.9556534","-77.0021964","905112130077089,748538600142879,1210844998367589","1352422279870633","","1338861885603364","781385730081935","","",""
"1214902198182923","1148831835061989","Hillcrest - Rhode Island Ave","","","","38.911691","-77.0247585","1287524810502357,1161898129373780,1012823920759090,623995531339898,1118072829940673,1118941099925179,1083170236781208,1257354181828621,914742928477842,1156322445305197,796791181677810,858888948104571,1265678209789686,594606264685919,757989986692540,1128704737609004,1272557250166706,1210250305509510,1217211341955511,1113342189645613,906124615204603,540866542533436","1229125012382256","","1338861885603055","886665393820928","","",""
"1225318904357849","1284952943863665","Unity at Patricia Handy Place (Ward 2)","","","","38.900331","-77.019219","637056281967653,641492455035039","","","","881121860903887","","",""
"1239287635408868","893442799835060","Southeast DC Office","","","","38.872858","-76.971339","768548905888033,788377494442735","1200466336568415","","1000313729865166,632930369321470","1298821331716682","","",""
"1243562110622958","766867144136285","Northeastern Presbyterian Church","","","","38.9431552","-76.9749723","1257962156531903","902299258856691","","1088618226878520","575123767754330","","",""
"1241825498211259","1187309405282204","Mazique at Reeves","","","","38.9175547","-77.0324732","882832254990502","1126681676431855","","","583943994142484","","",""
"1245305987898697","808240584407061","Main Office","","","","38.7537763","-77.0851809","1214338575557271,778515041064471,804348455722045,605278265206856,862710749221593,827054024656401,763809067838037","1122235764859744","","1171799503916927,1288729815290129,734106795425640,1301758325765281","629637985917430","","",""
"1246425051489068","1091742936273498","Engine 4 Station","","","","40.7037235","-74.0073452","1278346715900586,608659423860858","815636513875681","","","635968025390902","","",""
