ID,id,name,organization_id,alternate_name,transportation,latitude,longitude,description,location_services,location_phones,location_details,location_schedule,location_address,flag
1,536496426622681,"645 H Street, NE, WDC 20002",1286410465547920,,,38.899988,-76.9964478,,1159527228339119,1102555479175659,,,1106512184832418,,,,2020-07-01T05:26:58.000000Z,2020-07-01T05:26:58.000000Z
2,546085340417620,"924 G Street NW Washington, DC 20001",663729632205210,,,38.8979969,-77.025103,,"1102547057482287,777479494055010",690791937991609,,,1072933446361784,,,,2020-07-01T05:26:58.000000Z,2020-07-01T05:26:58.000000Z
3,545659771156125,"Anacostia Road Apartments",1085960322097234,,,38.8747834,-76.9654987,,593910008000184,1202903945491491,,1202819882057306,1056162087894961,,,,2020-07-01T05:26:58.000000Z,2020-07-01T05:26:58.000000Z
4,574924274540606,"65 Massachusetts Avenue NW Washington, DC, 20001, US",0,,,,,,821678418698117,,,,,,,,2020-07-01T05:26:58.000000Z,2020-07-01T05:26:58.000000Z
5,586004400786711,"Family and Medical Counseling Services, Inc.",0,,,38.8659856,-76.9897776,,1277116846663193,"1288270700272372,933430884294333",,,865952231500398,,,,2020-07-01T05:26:58.000000Z,2020-07-01T05:26:58.000000Z
6,594960886051316,"Ralph Waldo 'Petey' Greene Community Service Center",761153930697275,,,38.8460534,-76.9971121,,"1081790752848877,1213230585541920,1219686317955585,1133165843084453,1052254032756894,1253744104425599,777260696695053,1300660045853572,807525744099302,874199505765345,1187200756463947,1296433586474206,924655410570415,943779508068444,794796274007587,916436632015801,602650991439185",1152713868211992,,"587544010010943,940897095189363",1304904589817191,,,,2020-07-01T05:26:58.000000Z,2020-07-01T05:26:58.000000Z
7,593446361217353,"810 5th Street NW Washington, DC, 20001, US",0,,,,,,804741531339742,,,,,,,,2020-07-01T05:26:58.000000Z,2020-07-01T05:26:58.000000Z
8,547920365968268,"Central American Resource Center",1116810105858975,,,38.9271876,-77.0344749,,"657511678545226,688139575815288,810344496794884,821980999983631,1115196970236426,738209311024775,1100791575997951,1225863118799944,1251743719079225,1083719705858867,607894816484467,882877789489952,615976785591225,900680386991276,1273385977104878,1094845253700469,626403044236059",1158694379718344,,,842193303927915,,,,2020-07-01T05:26:58.000000Z,2020-07-01T05:26:58.000000Z
9,556992607571593,"Goodwill of Washington DC",1006551858895588,,,38.9201573,-76.9583828,"Both career center and retail store.","796887413251668,993349225663598",1335409748289651,,"1234489072118727,1236014074213679,897023077002665",1109157629072836,,,,2020-07-01T05:26:58.000000Z,2020-07-01T05:26:58.000000Z
10,572381295862246,"Casa Ruby",577764298046742,,,38.981673,-77.026926,,"783798317190015,757050460311671,1285397708822108,771378282180941,647361700663696,1336511977669058,656905764489449,1332741706053106",937785373035309,,"605106466070807,872554493521158",603292299584681,,,,2020-07-01T05:26:58.000000Z,2020-07-01T05:26:58.000000Z
11,573694594931255,"2100 New York Avenue NE Washington, DC, 20002, US",0,,,,,,1233829102705880,,,,,,,,2020-07-01T05:26:58.000000Z,2020-07-01T05:26:58.000000Z
12,577194179164801,"Sasha Bruce - Transitional Living Program",1306699628219808,,,38.8839641,-76.9296229,,1084298429662110,,,,1119492762868078,,,,2020-07-01T05:26:58.000000Z,2020-07-01T05:26:58.000000Z
13,585101162574385,"LAYC - DC Safe Drop-in Center",1323195974089796,,,38.9282971,-77.0357794,,"839260018674017,850061472824026,872556751746749,1197691835069647",977837017262074,,808587444827952,846581217255552,,,,2020-07-01T05:26:58.000000Z,2020-07-01T05:26:58.000000Z
14,602791638266539,"Taylor Street",1326157862705937,,,38.9410507,-77.02775,,"894009414185445,1109924174096172","1131051329814284,879651358762725",,1147502693326005,1220655046642450,,,,2020-07-01T05:26:58.000000Z,2020-07-01T05:26:58.000000Z
15,561801011049427,"7603 Georgia Avenue Nw Washington, DC 20012",929124125579243,,,38.9819508,-77.026198,,1076521704505640,1117030301987604,,,1292569171205217,,,,2020-07-01T05:26:58.000000Z,2020-07-01T05:26:58.000000Z
16,574114996921997,"Sasha Bruce - Promise Place",1306699628219808,,,38.8851122,-76.9158068,,1157781613265181,1252883236773788,,,1055916387358124,,,,2020-07-01T05:26:58.000000Z,2020-07-01T05:26:58.000000Z
17,593420875501329,"Park Road Transitional Program",1085960322097234,,,38.9307935,-77.0305165,,672042329600890,"731145721900218,1210092478249256",,,1196769672934076,,,,2020-07-01T05:26:58.000000Z,2020-07-01T05:26:58.000000Z
18,609550690795774,"MLK Jr. Ave.",1326157862705937,,,38.8659856,-76.9897776,,"1105568722092716,800132260226272","827283242603751,878448197736553",,,1231516890380928,,,,2020-07-01T05:26:58.000000Z,2020-07-01T05:26:58.000000Z
19,612166168856784,"La Casa Transitional Rehabilitation Program (TRP)",1085960322097234,,,38.9363756,-77.0291455,,807542367996268,1213542765723083,,1202819882057306,855901575106743,,,,2020-07-01T05:26:58.000000Z,2020-07-01T05:26:58.000000Z
20,616405328742379,"1667 Good Hope Road SE Washington, DC 20020",1118282953085799,,,38.8655348,-76.9797426,,902085800158226,1162193804880983,,,1289939133492405,,,,2020-07-01T05:26:58.000000Z,2020-07-01T05:26:58.000000Z
21,625764854102357,"Mickey Leland House",1085960322097234,,,38.914732,-77.0177099,,1191507987013016,"948692297893561,616315721892118",,1202819882057306,744195899554615,,,,2020-07-01T05:26:58.000000Z,2020-07-01T05:26:58.000000Z
22,628637355176202,"Hughes Memorial UMC",1013543362848937,,,38.8905358,-76.9254723,,"565227181581504,647232963972591,801873048546872,1114943570667214,1125749101520857,1185457585183638,974562561948426",905425032669080,,,1190125799561725,,,,2020-07-01T05:26:58.000000Z,2020-07-01T05:26:58.000000Z
23,579382634687033,"First Rising Mt. Zion Baptist Church",643565902574203,,,38.9070032,-77.0203979,,960051770169079,"1122048401320402,1249359518761001",,,768490071786905,,,,2020-07-01T05:26:58.000000Z,2020-07-01T05:26:58.000000Z
24,590682349485236,"555 L Street SE Washington, DC, 20003, US",0,,,,,,1087786183743790,,,,,,,,2020-07-01T05:26:58.000000Z,2020-07-01T05:26:58.000000Z
25,616652943932532,"St. Philip the Evangelist Episcopal Church",641527619630164,,,38.8655385,-76.9858177,,565809012321458,966776474605843,,,1157720407283054,,,,2020-07-01T05:26:58.000000Z,2020-07-01T05:26:58.000000Z
26,638978574424697,"600 5th Street NW Washington, DC 20001",837178101758888,,,38.8979138,-77.0194727,,1225714083985470,927713584191406,,,788465536422820,,,,2020-07-01T05:26:58.000000Z,2020-07-01T05:26:58.000000Z
27,640375823525191,"Washington, DC Campus",866237660806724,,,38.8568383,-76.9702919,,"852851666991889,680052874958118",654485576131912,,,632170755225855,,,,2020-07-01T05:26:58.000000Z,2020-07-01T05:26:58.000000Z
28,643003869576460,,0,,,,,,,,,,,,,,2020-07-01T05:26:58.000000Z,2020-07-01T05:26:58.000000Z
29,579629710592839,"2000 P St NW Suite 240, Washington DC 20036",559497771463092,,,,,,,,,,,,,,2020-07-01T05:26:58.000000Z,2020-07-01T05:26:58.000000Z
30,584305438522794,,0,,,,,,,,,,,,,,2020-07-01T05:26:58.000000Z,2020-07-01T05:26:58.000000Z
31,610894518918920,"A Wider Circle Center for Community Service",692112692154000,,,39.005589,-77.0487557,,"1071110285565782,595461104582359,1244526695505882","877523491860439,780596419575738",,"646160018921336,1236548249618145",1154169690232586,,,,2020-07-01T05:26:58.000000Z,2020-07-01T05:26:58.000000Z
32,637060669322588,,0,,,,,,,,,,,,,,2020-07-01T05:26:58.000000Z,2020-07-01T05:26:58.000000Z
33,636804178113511,"Silver Spring United Methodist Church- Four Corners Campus",0,,,39.0197045,-77.0125189,,1098880366371154,,,1086583396819017,1323399831811616,,,,2020-07-01T05:26:58.000000Z,2020-07-01T05:26:58.000000Z
34,638793416229400,"75 P Street NE Washington, DC 20002",804221482345419,,,38.9096198,-77.0075199,,942882797339036,1118135668686826,,,1299357181914721,,,,2020-07-01T05:26:58.000000Z,2020-07-01T05:26:58.000000Z
35,595592759444028,"La Casa Transitional Housing",1114103792920259,,,38.9363756,-77.0291455,,646395612481753,1213542765723083,,,855901575106743,,,,2020-07-01T05:26:58.000000Z,2020-07-01T05:26:58.000000Z
36,595076968604503,"1355 New York Avenue NE Washington, DC, 20002, US",0,,,,,,585676804126726,,,,,,,,2020-07-01T05:26:58.000000Z,2020-07-01T05:26:58.000000Z
37,614054990318357,"D.C. Department of Employment Services (DOES)",1211152552512890,,,38.8970435,-76.9478322,,724876636641588,"1186759129130174,875468115344861",,1199959158515631,1146287597878979,,,,2020-07-01T05:26:58.000000Z,2020-07-01T05:26:58.000000Z
38,620132940242525,"United Medical Center",1220981589179778,,,38.8359393,-76.9849936,,"842684188416003,1163350819971430,1145687738484263,605860875832060,1197999240060381,960651180984847,635136975520891","1136418356307446,634348163252280,779773845250525",,,818226241830087,,,,2020-07-01T05:26:58.000000Z,2020-07-01T05:26:58.000000Z
39,619784806206149,"1525 14th St NW Washington, DC 20005",0,,,,,,"802246956701009,1179854807435757,760885031702204,1314427687239600",,,,,,,,2020-07-01T05:26:58.000000Z,2020-07-01T05:26:58.000000Z
40,621638073150979,"Mazique at Reeves",612828763371641,,,38.9175547,-77.0324732,,"1209187247938710,792954474348824",1200602057472122,,,882267988490168,,,,2020-07-01T05:26:58.000000Z,2020-07-01T05:26:58.000000Z
41,629348329513757,"Petworth Health Center",840733417398800,,,38.9392032,-77.0255908,,"1259349665237657,1189947540122655,969095511875672,1147407982912051,1208776169183354,739078424499970,580520440912412,1249176990484846,637113061667348,615988503257217,918238055415108,1028365853402776,1035362732313948,586062612640149,727116699390008,924435449967844,966657126572943,767682966554088,948956237360164,872823918122712,784062651801689,606631780927132,591961230618386","1301804131597006,1263593198567823",,"973584384940208,669960004909347,1265751400070604,1059813935264051,598752576659212,1283475567989779,601427652072887,1306830164729601",732086812000340,,,,2020-07-01T05:26:58.000000Z,2020-07-01T05:26:58.000000Z
42,635908414118431,"OIC/DC Headquarters",872299181857178,,,38.8378534,-77.0064932,,,"1316305199562702,1159943619120642",,,780118098199918,,,,2020-07-01T05:26:58.000000Z,2020-07-01T05:26:58.000000Z
43,659628565110513,"899 N Capitol Street NE Washington, DC 20002",922709314921881,,,38.9010559,-77.0085403,,777481511640778,948338018712218,,,1225625601966457,,,,2020-07-01T05:26:58.000000Z,2020-07-01T05:26:58.000000Z
44,632725434790464,"Vida Adams Morgan",1168436736852155,,,38.9230553,-77.0444604,,"853468345123345,1106083468244471,780286718217610,785698484366760,810358604812792",1147869714969920,,,620565499902964,,,,2020-07-01T05:26:58.000000Z,2020-07-01T05:26:58.000000Z
45,656132195479560,"Paramount Baptist Church",608021838760746,,,38.8321096,-77.0002617,,,"1087810688598243,1172790209445624",,,883083188029718,,,,2020-07-01T05:26:58.000000Z,2020-07-01T05:26:58.000000Z
46,671468679071199,"Lutheran Church of the Reformation",915322254234555,,,38.8900657,-77.0028518,,"640103169037193,852882436125716",852143936371728,,,948985953505133,,,,2020-07-01T05:26:58.000000Z,2020-07-01T05:26:58.000000Z
47,608638223100862,"3240 Stanton Road SE Washington, DC, 20020, US",0,,,,,,985132906099195,,,,,,,,2020-07-01T05:26:58.000000Z,2020-07-01T05:26:58.000000Z
48,608497828316445,"DC Center for Independent Living - Main Office",964889233755760,,,38.9236657,-76.990551,,"1172793580060024,569770427910971,1229131972445514,1311031611561841,1086482131081597,688871630742360,1166105214343141","640566067009366,1009972720361462,624495395805685",,1180459083504396,904316078691110,,,,2020-07-01T05:26:58.000000Z,2020-07-01T05:26:58.000000Z
49,616773646539267,"821 Howard Road SE Washington, DC 20020",973693914944031,,,38.8638768,-76.9980495,,1035914598171821,,,,1175595689293964,,,,2020-07-01T05:26:58.000000Z,2020-07-01T05:26:58.000000Z
50,641740493818315,"Advocates for Justice and Education - Georgia Ave",1169351687674186,,,38.9392032,-77.0255908,,"713046095331473,1082503758750664,1220807689850937,855252238426842",602432444817544,,1170631815352558,767767048082720,,,,2020-07-01T05:26:58.000000Z,2020-07-01T05:26:58.000000Z
51,644198517647426,"OIC/DC Training Center",872299181857178,,,38.844416,-76.99761,,"1337570408700851,765864786771732,1161420907803778,1185051455558186","1329231011154165,940633061926387,1159943619120642",,"1125054424161461,836900782822377",592528015341160,,,,2020-07-01T05:26:58.000000Z,2020-07-01T05:26:58.000000Z
52,668036601632538,"19 Eye Street NW Washington, DC 20001",0,,,,,,,1123859846194392,,,,,,,2020-07-01T05:26:58.000000Z,2020-07-01T05:26:58.000000Z
53,665576595246792,"250 E Street SW Washington, DC 20024",886723337790722,,,38.8828972,-77.014434,,1287637880598333,1251133036677676,,,803873216349399,,,,2020-07-01T05:26:58.000000Z,2020-07-01T05:26:58.000000Z
54,674131229606594,"3720 Martin Luther King Jr. Ave SE Washington, DC 20032",659021595524966,,,38.8369919,-77.0061558,,635156280108722,,,,1094251756466267,,,,2020-07-01T05:26:58.000000Z,2020-07-01T05:26:58.000000Z
55,647497712481280,"NLSP Southeast Office",820488001755900,,,38.8732232,-76.9719346,,"940202748401268,813553671875388,806428640646955,1109436994306012,718050681265809,1224083578603659,1214476217655096","1129255270268768,844454253113341",,"1199926477647156,1084017663290159",1290871308678350,,,,2020-07-01T05:26:58.000000Z,2020-07-01T05:26:58.000000Z
56,646605477191198,"2804 South East Maryland Avenue Washington, DC 20032",1306699628219808,,,,,,,1173443518827100,,,,,,,2020-07-01T05:26:58.000000Z,2020-07-01T05:26:58.000000Z
57,680609348421278,"Ionia R. Whipper Home Program Facility",925199151398185,,,38.9226203,-76.9758499,,895467915545937,1194161595371590,,675698187786947,861472460969984,,,,2020-07-01T05:26:58.000000Z,2020-07-01T05:26:58.000000Z
58,691606849422707,"McClendon Center Day Program and Administrative Offices",1220107638243156,,,38.8999882,-77.0311238,,958581554726772,1291522275841396,,,659764004272890,,,,2020-07-01T05:26:58.000000Z,2020-07-01T05:26:58.000000Z
59,643145676043430,"McKenna's Wagon 15th and K Streets, NW",1279230501938511,,,38.9024168,-77.0345695,,1072375211967855,1235881686916009,,761457899568459,1119020487265501,,,,2020-07-01T05:26:58.000000Z,2020-07-01T05:26:58.000000Z
60,646558365152210,"Vida Brightwood",1168436736852155,,,38.9614631,-77.0315061,,"853468345123345,1106083468244471,780286718217610,785698484366760,810358604812792",1147869714969920,,,990219526768898,,,,2020-07-01T05:26:58.000000Z,2020-07-01T05:26:58.000000Z
61,666148222775634,"4125 Albemarle Street NW Washington, DC 20016",880881169888319,,,38.9481931,-77.0816737,,1264097357440589,620271434886665,,,1320233927043765,,,,2020-07-01T05:26:58.000000Z,2020-07-01T05:26:58.000000Z
62,685766591979438,"Gorlitz Kensington Club at Parklawn",0,,,39.0588554,-77.111526,,,958720616157709,rec80f6Nb2nlha6Ff,878694033728814,1050035692418764,,,,2020-07-01T05:26:58.000000Z,2020-07-01T05:26:58.000000Z
63,688457108968845,"Virginia Williams Family Resource Center",1286410465547920,,,38.9230157,-76.9930174,,"573528188325499,1128285304774272,1163310698125750","612480373273711,958866684536217",,"656180073780206,1268157148852129",1255819816076094,,,,2020-07-01T05:26:58.000000Z,2020-07-01T05:26:58.000000Z
64,688746232722666,"Northwest Center",1275972111076677,,,38.924407,-77.0405135,,"1048327823635547,895703387545823",776656918535876,,"1165555818915699,1177629354463342",854824186087142,,,,2020-07-01T05:26:58.000000Z,2020-07-01T05:26:58.000000Z
65,692842183271323,"Congress Heights Campus",706476638607137,,,38.8427636,-76.9999917,,"1192518431630550,794527613963060",919075870505440,,,915998507127869,,,,2020-07-01T05:26:58.000000Z,2020-07-01T05:26:58.000000Z
66,692231605294536,"2300 Martin Luther King Jr Avenue SE Washington, DC 20020",9.7367979007131E+32,,,38.8629362,-76.9912175,,986036993747047,779718783706461,,,1205767697739732,,,,2020-07-01T05:26:58.000000Z,2020-07-01T05:26:58.000000Z
67,694216969315685,"Misler Adult Day Center",855094084464049,,,39.0562259,-77.1270337,,955710918748274,"858213402905044,875226713634799",reca1xstMGjaZrtLE,1140587781886213,999940717683001,,,,2020-07-01T05:26:58.000000Z,2020-07-01T05:26:58.000000Z
68,697236030854047,"P.O. Box 34125, WDC 20043",0,,,,,,,819440187923797,,,,,,,2020-07-01T05:26:58.000000Z,2020-07-01T05:26:58.000000Z
69,768745938934251,"1251-B Saratoga Ave NE Washington, DC, 20018, US",0,,,,,,"1086946181218942,630366887360887",,,,,,,,2020-07-01T05:26:58.000000Z,2020-07-01T05:26:58.000000Z
70,771634087422781,"DC Central Kitchen Headquarters",804045327953048,,,38.8954586,-77.0133543,,612309985819526,819191608404189,,,730657096706420,,,,2020-07-01T05:26:58.000000Z,2020-07-01T05:26:58.000000Z
71,776793732904241,"305 E Street NW Washington, DC 20001",1205641770221060,,,38.8963228,-77.0155925,,1225292713865575,604159793210932,,,967673170995278,,,,2020-07-01T05:26:58.000000Z,2020-07-01T05:26:58.000000Z
72,716790716916689,"1438 Rhode Island Avenue, NE Washington, DC 20018",876151548923517,,,38.8986099,-76.9259087,,1094949344500644,1139575083738151,,,606496800787508,,,,2020-07-01T05:26:58.000000Z,2020-07-01T05:26:58.000000Z
73,732860283051181,"540 55th Street, NE Room W 101 Washington, DC, 20019, US",0,,,,,,988942778535389,,,,,,,,2020-07-01T05:26:58.000000Z,2020-07-01T05:26:58.000000Z
74,756139435965093,"First Baptist Church of Deanwood",1007623446966696,,,38.9031079,-76.9379738,,"831904738773639,1175089962860672,967263158004203,1110554525256285,1098750358504732,854338133373761,1224357598807692,1166106416739636,1220865966040605,856023638190230","755149488867036,789012738713185",,,1088461256923134,,,,2020-07-01T05:26:58.000000Z,2020-07-01T05:26:58.000000Z
75,757770995905648,"Gaithersburg Middle School",0,,,39.1440046,-77.1877863,,1098880366371154,,,1290585332942139,1201700034845635,,,,2020-07-01T05:26:58.000000Z,2020-07-01T05:26:58.000000Z
76,765115819494380,"Seabury - Newton St",1180598613249590,,,38.9343383,-76.9665114,,"571969699128717,1290396892728753","990653723421604,802433304248750,1281076749443978",,,638665770674913,,,,2020-07-01T05:26:58.000000Z,2020-07-01T05:26:58.000000Z
77,768639914164498,"Legal Aid Society of DC - Main Office",1091757696945828,,,38.9003812,-77.0309775,,"1088296624271784,871063337645437,1098665459896297,757455042685009","1289374770713295,1234325977097951",,"871092289270509,1035182743655741",635267247673749,,,,2020-07-01T05:26:58.000000Z,2020-07-01T05:26:58.000000Z
78,728145736382163,"DC Rape Crisis Center",809193297555798,,,38.9550997,-77.0040411,,"671724061345975,681767171553959,695948265970000,600624054710125,613307132570587,1160149147134890,1298139501002270","819440187923797,1058012807425886,782968788385719,1248802193472840",,,782477248679291,,,,2020-07-01T05:26:58.000000Z,2020-07-01T05:26:58.000000Z
79,753725216657831,"Doctors Community Hospital",906930104707530,,,38.9808223,-76.8651595,,1106825602268001,,,,759955074598501,,,,2020-07-01T05:26:58.000000Z,2020-07-01T05:26:58.000000Z
80,764535834724222,"1500 Galen Street SE Washington, DC, 20020, US",0,,,,,,"1226281254511848,1133489323155206",,,,,,,,2020-07-01T05:26:58.000000Z,2020-07-01T05:26:58.000000Z
81,771071731283748,"300 Indiana Avenue Washington, DC 20001",1278050819659890,,,38.8943419,-77.0165645,,1104601682011881,791269361544315,,,953544198636965,,,,2020-07-01T05:26:58.000000Z,2020-07-01T05:26:58.000000Z
82,793256928193231,"North Columbia Heights Green",640186123610411,,,38.9312805,-77.0278062,,1318218238602449,1126250650450819,,"1159408019708687,916456272581834",1180062904104210,,,,2020-07-01T05:26:58.000000Z,2020-07-01T05:26:58.000000Z
83,799908624348129,"3933 Benning Road NE Washington, DC 20019",932228398355792,,,38.8945549,-76.9478942,,652574554780668,766720094891664,,,688999009453287,,,,2020-07-01T05:26:58.000000Z,2020-07-01T05:26:58.000000Z
84,741750394643085,"Family Matters of Greater Washington",805167768269068,,,38.901643,-77.0169534,,990367220887588,1148220140221272,,621588457199048,862131546718091,,,,2020-07-01T05:26:58.000000Z,2020-07-01T05:26:58.000000Z
85,743353111808252,"Pathways to Housing",976379482380679,,,38.9249975,-76.9938723,,"1314823770834798,881012847859169,820685180498221,772580143837637,1123886368027680",972386234094039,,,1137409735223363,,,,2020-07-01T05:26:58.000000Z,2020-07-01T05:26:58.000000Z
86,771897230838212,"YWCA North Capital Area",1230770757213322,,,38.920781,-77.0314981,,"1076980913864779,810517634677025,1297058844905012,1188218787305496,824247975076202,1142076553934088,1146566781515189",1173484064031440,,863170635291858,1330181492619505,,,,2020-07-01T05:26:58.000000Z,2020-07-01T05:26:58.000000Z
87,770635363010046,"Elaine Ellis DC",605134586578120,,,38.9116973,-76.9339447,,"956817646477291,822106893088278,609582364629457,1060160690284572,800106312438349,743182672086208,995363917586083","1198488947117166,695928846468418",,"776932249812148,761526422726808,895454221155573,951328657288514",651804021834110,,,,2020-07-01T05:26:58.000000Z,2020-07-01T05:26:58.000000Z
88,767274390634346,"Language Services",795756022910298,,,,,"At Ayuda, we work to make sure that everyone can get help when they need it, regardless of the languages that they use to communicate.

We partner with and work for a wide array of clients, non-profit organizations, legal and social professionals, and more. Use one of the links below to learn about our language access services, our partnerships, and our opportunities. ",,910170559958808,,,,,,,2020-07-01T05:26:58.000000Z,2020-07-01T05:26:58.000000Z
89,764854375292129,"SERVE Campus",682552065545256,,,38.7448018,-77.499861,,"633702102837581,1136637606616454,759287871630149,1273431636145481","1326191823188479,964860483808020",,,1341470966230086,,,,2020-07-01T05:26:58.000000Z,2020-07-01T05:26:58.000000Z
90,773029335736391,"Project Safe Place",1306699628219808,,,38.894903,-76.9955839,,"1066884473551582,1104456609971378,958643940332296","1124292625920947,1173443518827100",,,1331024333739197,,,,2020-07-01T05:26:58.000000Z,2020-07-01T05:26:58.000000Z
91,802183159679728,"1200 Clifton Street NW Washington, DC, 20009, US",0,,,,,,912991415461624,,,,,,,,2020-07-01T05:26:58.000000Z,2020-07-01T05:26:58.000000Z
92,812882827630009,"McKenna's Wagon 2nd & H Streets, NW",1279230501938511,,,38.9003849,-77.0135255,,1072375211967855,1235881686916009,,993619337592407,618301459976775,,,,2020-07-01T05:26:58.000000Z,2020-07-01T05:26:58.000000Z
93,816301601038577,"Barbara Chambers Children's Center #3",580772169029651,,,38.9315658,-77.032923,,"1182157958552306,670644496333952,814817282883148,813051911788426",574820988537178,,,1309359311970768,,,,2020-07-01T05:26:58.000000Z,2020-07-01T05:26:58.000000Z
94,763729877559385,"Advocates for Justice and Education - G Street",1169351687674186,,,38.8980247,-77.0285152,,"713046095331473,1082503758750664,1220807689850937,855252238426842","1278097116269820,1123181686957068",,859999387383412,578010665151939,,,,2020-07-01T05:26:58.000000Z,2020-07-01T05:26:58.000000Z
95,789258912445477,"Administrative Office - Chancellor Williams Learning Center",964008795352849,,,38.9169963,-77.0002842,,,747827439705313,,781968150048609,1064797196526287,,,,2020-07-01T05:26:58.000000Z,2020-07-01T05:26:58.000000Z
96,794797236312168,"Upper Marlboro Campus",866237660806724,,,38.8188109,-76.756107,,,654485576131912,,,838330214597435,,,,2020-07-01T05:26:58.000000Z,2020-07-01T05:26:58.000000Z
97,796479538430138,ACTS,562836772362344,,,38.9059245,-77.0457525,,1123747363862749,1107027116589953,,,1092560590600641,,,,2020-07-01T05:26:58.000000Z,2020-07-01T05:26:58.000000Z
98,813926334906214,"Barbara Chambers Children's Center #1",580772169029651,,,38.9285104,-77.0353872,,"1182157958552306,670644496333952,814817282883148,813051911788426",986167438798239,,,1219279263504235,,,,2020-07-01T05:26:58.000000Z,2020-07-01T05:26:58.000000Z
99,812651859569539,"Children’s National Emergency Department at United Medical Center",1061724977026001,,,38.8359393,-76.9849936,,1106825602268001,821522834677408,,1114212408169049,624416318221093,,,,2020-07-01T05:26:58.000000Z,2020-07-01T05:26:58.000000Z
100,814720878521693,"2601 18th Street NE Washington, DC 20018",1195280864464976,,,38.9237346,-76.9780775,,"685530407413205,1107889620148311,1179815376168159,750164217924618",1257614234179117,,,1230684095904498,,,,2020-07-01T05:26:58.000000Z,2020-07-01T05:26:58.000000Z
101,828471643877342,"My Sister's Place Administrative Office",1146223650874517,,,38.9167234,-77.0336428,,963237379779513,994216481827808,"recId0zA99X9thSnm,recnhQ81WezEaxlal",,795538631439658,,,,2020-07-01T05:26:59.000000Z,2020-07-01T05:26:59.000000Z
102,776699670514011,"2114 14th Street NW Washington, DC 20009",1279230501938511,,,38.9185075,-77.0323833,,,633789582292485,,,767840187878170,,,,2020-07-01T05:26:59.000000Z,2020-07-01T05:26:59.000000Z
103,788509441386056,"Georgia Avenue (Main Office)",644694600510926,,,38.9669177,-77.0270752,,"1199983060673417,642012149083751","1114638904926849,963948373745242",,,926785180984945,,,,2020-07-01T05:26:59.000000Z,2020-07-01T05:26:59.000000Z
104,791197553917784,"The United Church",606016520179422,,,38.898035,-77.044573,,647808349539409,1303072516221458,,"906429357237950,1193430541047450",1116967911199305,,,,2020-07-01T05:26:59.000000Z,2020-07-01T05:26:59.000000Z
105,794544831800797,"Clifton Park Baptist Church",0,,,39.0003356,-76.9940973,,1098880366371154,,,919516814699587,1141293492392934,,,,2020-07-01T05:26:59.000000Z,2020-07-01T05:26:59.000000Z
106,806538913069520,"Progreso Center for Literacy & Citizenship​",919690199169575,,,38.7305614,-77.1026873,,946406110593174,1107310655120205,,"1142549507368182,865906886892733",1147744635877386,,,,2020-07-01T05:26:59.000000Z,2020-07-01T05:26:59.000000Z
107,833655491101686,"Ayuda VA Office",795756022910298,,,38.8799516,-77.2353961,,"1120365239019390,1098998360726289,940105141272489",1097812419353578,,1054407756179482,1255038891038036,,,,2020-07-01T05:26:59.000000Z,2020-07-01T05:26:59.000000Z
108,778459456343468,"Main Headquarters and Family Support Program",925199151398185,,,38.9239294,-76.997202,,"853798812414411,1108884623053766,1277069302008536","1194161595371590,940726938687210",,986926461476700,1174417076661204,,,,2020-07-01T05:26:59.000000Z,2020-07-01T05:26:59.000000Z
109,794801403576891,"Mississippi Avenue and Archer Park Apartments",1195870505334629,,,38.8403609,-76.9871985,,,1329462654055472,,,996018439061196,,,,2020-07-01T05:26:59.000000Z,2020-07-01T05:26:59.000000Z
110,796263991528142,"1525 14th St NW, Washington, DC 20005",0,,,,,,,,,,,,,,2020-07-01T05:26:59.000000Z,2020-07-01T05:26:59.000000Z
111,803343321842264,"1725 Lincoln Road NE Washington, DC 20002",0,,,38.9136032,-77.0073706,,,585747742483327,,,1064111830015897,,,,2020-07-01T05:26:59.000000Z,2020-07-01T05:26:59.000000Z
112,818820237164190,"Prince George’s Welcome Center",1140996665222837,,,38.9908142,-76.9879105,,617081192222015,"1184988992731200,1064747875068781,1146297245374974",,"1276905600276103,940374540509771",612619690370287,,,,2020-07-01T05:26:59.000000Z,2020-07-01T05:26:59.000000Z
113,817854864378068,"Ayuda Administrative Office",795756022910298,,,38.9029168,-77.0327206,,940105141272489,910170559958808,,1215238565328490,986915619860557,,,,2020-07-01T05:26:59.000000Z,2020-07-01T05:26:59.000000Z
114,818839794992906,"Anacostia Big Chair (Office)",644694600510926,,,38.8659856,-76.9897776,,642012149083751,"1114638904926849,1104511203133237",,779790908267690,1231516890380928,,,,2020-07-01T05:26:59.000000Z,2020-07-01T05:26:59.000000Z
115,828792720206018,"Westminster Presbyterian Church",983721114373124,,,38.8789526,-77.018258,,"797834103829212,854051618591377,616081055315775,1140920920771303,1195066035930824,765385785732538,577584068562238,1067731380928038,903665589155441,549681153080082",871700855571478,"recFArbDBoTSbdmJq,rectVYtDMpmNHMa0l",900562936646293,1043474797867812,,,,2020-07-01T05:26:59.000000Z,2020-07-01T05:26:59.000000Z
116,790873813272838,"500 K Street NE Washington, DC 20002",592260988502497,,,38.9028335,-76.999142,,920928473432747,,,1307968476831403,853101226577898,,,,2020-07-01T05:26:59.000000Z,2020-07-01T05:26:59.000000Z
117,786926809235258,"1200 U Street NW Washington, DC 20009",1189531744334079,,,38.9167416,-77.0283685,,1123977616675533,760540407770358,,,1094557326565656,,,,2020-07-01T05:26:59.000000Z,2020-07-01T05:26:59.000000Z
118,798494517814959,"Sasha Bruce - Richardson Youth Center",1306699628219808,,,38.8929043,-76.9236294,,1055696283461218,708588487667319,,,1275327544188973,,,,2020-07-01T05:26:59.000000Z,2020-07-01T05:26:59.000000Z
119,806168781795597,"4414 Benning Road NE Washington, DC, 20019, US",0,,,,,,"639340474137848,630366887360887,833155783547619,1133489323155206",,,,,,,,2020-07-01T05:26:59.000000Z,2020-07-01T05:26:59.000000Z
120,813145471968195,,0,,,,,,,,,,,,,,2020-07-01T05:26:59.000000Z,2020-07-01T05:26:59.000000Z
121,813250237828389,"Lorton's Attic, Thrift Store",930909694635560,,,38.700939,-77.2116161,,1287738688707705,1172806498907172,,"1245900033225592,1279269183820818",1134049832810428,,,,2020-07-01T05:26:59.000000Z,2020-07-01T05:26:59.000000Z
122,818297935399976,"Sasha Bruce - Transitional Housing Program",1306699628219808,,,38.8282306,-76.9959647,,605446506944549,1248521145824482,,,876404395390211,,,,2020-07-01T05:26:59.000000Z,2020-07-01T05:26:59.000000Z
123,838780960881380,"Family Ministry Center",726173106231202,,,38.9305803,-76.9591751,"The Family Ministry Center (FMC) provides food, clothing, toiletries and household items to local families in need","1265325284377461,740916631620812,1248912869636667,961458582690801,660868979951197,1321094180433140",842965887033119,,,601101607323805,,,,2020-07-01T05:26:59.000000Z,2020-07-01T05:26:59.000000Z
124,857875532631251,"Food and Friends",1219589148672769,,,38.9556534,-77.0021964,,"730763164086236,1285350837219213,561778285748604",,,,1251720034767684,,,,2020-07-01T05:26:59.000000Z,2020-07-01T05:26:59.000000Z
125,805806723754090,"Margaret Schweinhaut Senior Center",855094084464049,,,39.0175246,-77.0263105,,"657179015884472,1134764669826308",958720616157709,rec80f6Nb2nlha6Ff,1149591818853041,1203002351100645,,,,2020-07-01T05:26:59.000000Z,2020-07-01T05:26:59.000000Z
126,803526594539754,"The Calvin Rolark Center",964008795352849,,,38.9169161,-77.0002842,,"733244062080278,953130575650955,814382562390416,1215438821283570,1146357672886284",747827439705313,,"1206135641605542,1203598271271102",601647045974328,,,,2020-07-01T05:26:59.000000Z,2020-07-01T05:26:59.000000Z
127,803276717045236,"The Commons at Stanton Square",1195870505334629,,,38.8548975,-76.9844872,,"859897161557047,850523592271025",1279880844015186,,"665724877149799,851787190372436",1172277611731022,,,,2020-07-01T05:26:59.000000Z,2020-07-01T05:26:59.000000Z
128,814793229124367,"1825 K Street NW Washington, DC 20006",782302579547834,,,38.9029138,-77.0425038,,977586749835410,"1228363334230136,803054506073706",,,844747715352778,,,,2020-07-01T05:26:59.000000Z,2020-07-01T05:26:59.000000Z
129,816964939097565,"71 O Street NW Washington, DC 20001",727847273433183,,,38.9088439,-77.0114197,,925880419304547,626402478477773,,,755424702995265,,,,2020-07-01T05:26:59.000000Z,2020-07-01T05:26:59.000000Z
130,831454623275466,"1434 Harvard St NW Ste B",756001362836549,,,,,,1098208700839960,1096946727548641,,,,,,,2020-07-01T05:26:59.000000Z,2020-07-01T05:26:59.000000Z
131,865999041296626,"Georgetown Ministry Center",783236314114871,,,38.9035686,-77.0619983,,"1305017069566679,1081316277006822,1311316578271310,772454821683547",658265377894745,,,807078925662836,,,,2020-07-01T05:26:59.000000Z,2020-07-01T05:26:59.000000Z
132,873020349083887,"Sasha Bruce - Independent Living Program",1306699628219808,,,38.8901671,-76.9876558,,873921955624383,675950610691596,,,757812310225300,,,,2020-07-01T05:26:59.000000Z,2020-07-01T05:26:59.000000Z
133,826027653390612,"3309 16th Street NW Washington, DC 20010",1099027550013558,,,38.9319239,-77.0360155,,936572307607654,736432051457759,,,1204830512074068,,,,2020-07-01T05:26:59.000000Z,2020-07-01T05:26:59.000000Z
134,836904778271068,"Mazique at 13th Street",612828763371641,"Central Office (Headquarters)",,38.9132582,-77.0292345,,"1209187247938710,607074649518713,792954474348824",1200602057472122,,888042423183025,626820886744559,,,,2020-07-01T05:26:59.000000Z,2020-07-01T05:26:59.000000Z
135,847472462897373,"200 I Street Southeast Washington, DC 20003",756344334747450,,,38.879923,-77.0030063,,994280834710332,817066446192440,,,965448006761791,,,,2020-07-01T05:26:59.000000Z,2020-07-01T05:26:59.000000Z
136,847752209986828,"Upper Marlboro Outpatient Center",1061724977026001,,,38.8172799,-76.8419598,,1176014704120176,"1280668750559036,1168115571351187",,1132999168848737,1289198148097063,,,,2020-07-01T05:26:59.000000Z,2020-07-01T05:26:59.000000Z
137,861447627614096,"1419 Columbia Rd NW Washington, DC 20009",833556938177872,,,38.9277554,-77.0332829,,1108638663383567,1097440010596926,,,1288365969354186,,,,2020-07-01T05:26:59.000000Z,2020-07-01T05:26:59.000000Z
138,864227644478566,"1342 Florida Ave., NW Washington, DC 20009",0,,,,,,760885031702204,,,,,,,,2020-07-01T05:26:59.000000Z,2020-07-01T05:26:59.000000Z
139,876205598154141,"6475 New Hampshire Avenue Hyattsville, MD 20783",610643317850454,,,38.9678126,-77.0001127,,862025517520940,1181058698920161,,,1079432174401742,,,,2020-07-01T05:26:59.000000Z,2020-07-01T05:26:59.000000Z
140,877263478223136,"Browne Educational Campus Family Support Program",925199151398185,,,38.9031828,-76.970877,,1108884623053766,1194161595371590,,,1107174864513111,,,,2020-07-01T05:26:59.000000Z,2020-07-01T05:26:59.000000Z
141,834887345290440,"Rebuilding Together DC Alexandria",623502983860633,,,38.8082432,-77.0465631,,"1313580838903453,920302771339848,1293112150353032,939239658768708",1184206268036011,,1272598751590026,1171518036331901,,,,2020-07-01T05:26:59.000000Z,2020-07-01T05:26:59.000000Z
142,835499994326344,"Jefferson Academy  Family Support Program",925199151398185,,,38.879881,-77.0229366,,1108884623053766,1194161595371590,,1142698126123180,1141336056500287,,,,2020-07-01T05:26:59.000000Z,2020-07-01T05:26:59.000000Z
143,835677959674778,"Administrative Office",726173106231202,,,38.9705143,-76.9139774,,,"842965887033119,669915272220937",,"897607761471269,823443167132501",743689912271342,,,,2020-07-01T05:26:59.000000Z,2020-07-01T05:26:59.000000Z
144,847934048599676,"Coalition for the Homeless Headquarters",1085960322097234,,,38.9041649,-77.0293694,,,1202903945491491,,,868557231082060,,,,2020-07-01T05:26:59.000000Z,2020-07-01T05:26:59.000000Z
145,848140138973075,"1628 16th Street NW Washington, DC 20009",1034824444966763,,,38.9121255,-77.0370901,,874569788026655,568191996005988,,,953759760601920,,,,2020-07-01T05:26:59.000000Z,2020-07-01T05:26:59.000000Z
146,848686188808388,"Community Outreach and Development",877366768823409,,,38.8738467,-76.9333971,,"1107243553438801,987007032021851,570068555050262,768832404265850,1266877916484133,951270390830894,831554257615200",1011118711605616,,542843689156312,764105236981511,,,,2020-07-01T05:26:59.000000Z,2020-07-01T05:26:59.000000Z
147,861096970014349,"Covenant Baptist Church DC",1253319258586656,,,38.8341778,-77.0086303,,"880988285788628,895095793944105,1054723852607588,937354212048327,1219974334671075",1067100404223709,,,1159415480551281,,,,2020-07-01T05:26:59.000000Z,2020-07-01T05:26:59.000000Z
148,884179044911706,"Habitat for Humanity DC",855802893163707,,,38.9067455,-77.0474734,,"858697878378487,943922015489393,787765929715080,877620900930693",,,1140008964398815,1098238485894342,,,,2020-07-01T05:26:59.000000Z,2020-07-01T05:26:59.000000Z
149,841307455613093,"1400 Decatur Street NW Washington, DC 20011",851305007018661,,,38.9480824,-77.0330355,,"1198504077729641,796710603642968,598601043584489,1281816879491049,1068357766582058,954908524616299,1243674394135496",860598871725625,,,1224638786118966,,,,2020-07-01T05:26:59.000000Z,2020-07-01T05:26:59.000000Z
150,841258008691748,"SAMARITAN MINISTRY OF GREATER WASHINGTON: NW OFFICE",0,,,,,,,,,,,,,,2020-07-01T05:26:59.000000Z,2020-07-01T05:26:59.000000Z
151,852413299313013,,0,,,,,,,,,,,,,,2020-07-01T05:26:59.000000Z,2020-07-01T05:26:59.000000Z
152,856126341619748,"Montgomery County Outpatient Center",1061724977026001,,,39.1004309,-77.2104258,,"1262392779353939,667209917494721,936510517377927,775820607481251,951768857764331","1299614523935499,814439444138298,975426855483800",,587218394770946,787442654546775,,,,2020-07-01T05:26:59.000000Z,2020-07-01T05:26:59.000000Z
153,861906967611938,"Mc Kendree UMC",1274524554725599,,,38.9319612,-76.971732,,,821254553857567,,,574217948188544,,,,2020-07-01T05:26:59.000000Z,2020-07-01T05:26:59.000000Z
154,866160986976618,"3917 Minnesota Avenue, NE Washington, DC 20019",1204249190863211,,,38.8937514,-76.9495877,,768961725734908,,,,1205097520595212,,,,2020-07-01T05:26:59.000000Z,2020-07-01T05:26:59.000000Z
155,882333039588739,"910 Westminster Street NW Washington, DC 20009",1284728776860892,,,38.9146534,-77.0244324,,668000665510895,827443796670715,,,891450530336608,,,,2020-07-01T05:26:59.000000Z,2020-07-01T05:26:59.000000Z
156,888768073760272,,633605990771272,,,,,,,,,,,,,,2020-07-01T05:26:59.000000Z,2020-07-01T05:26:59.000000Z
157,888398891117437,Yachad,1183850219079477,,,38.9977415,-77.0304159,,"1258855549014937,1124787894447866",896191474881929,,,851682919843426,,,,2020-07-01T05:26:59.000000Z,2020-07-01T05:26:59.000000Z
158,897004671586116,"425 2nd Street NW Washington, DC, 20001, US",0,,,,,,1282251456865145,,,,,,,,2020-07-01T05:26:59.000000Z,2020-07-01T05:26:59.000000Z
159,843095304494507,"Everyone Home DC Shirley’s Place Day Center",1245236106154921,,,38.8814731,-76.9869539,,"895973468150097,1174727442443930","976521643212097,591848459801218",,1127790854320730,803436271206188,,,,2020-07-01T05:26:59.000000Z,2020-07-01T05:26:59.000000Z
160,858837023472383,"Bread for the City Northwest Center",618997848324116,,,38.9103106,-77.021587,,"834460550368169,1080060911179544,775927218674309,1277116846663193","592888047524221,732018700373297",,,941976438893110,,,,2020-07-01T05:26:59.000000Z,2020-07-01T05:26:59.000000Z
161,867188743739885,"The Triumph                                                 Short-Term Family Housing",1195870505334629,,,38.8280384,-76.9985976,,1238532588650595,1227307482511597,,,736237693077342,,,,2020-07-01T05:26:59.000000Z,2020-07-01T05:26:59.000000Z
162,867077559081285,"A.P. Shaw Campus",706476638607137,,,38.8515498,-76.9853227,,,919075870505440,,,1256299082110299,,,,2020-07-01T05:26:59.000000Z,2020-07-01T05:26:59.000000Z
163,867684167756788,"1156 15th St NW, Suite 500, 20005",806677477926389,,,38.9053932,-77.0350156,,932258895912915,641538961244083,,,981030603936813,,,,2020-07-01T05:26:59.000000Z,2020-07-01T05:26:59.000000Z
164,873273529728080,"Northeast Site (Ward 5/Main site)",889845893875767,,,38.9208058,-76.9777175,,596474071852609,"1022412281964551,972949389893061",,855840227548974,1152392105754818,,,,2020-07-01T05:26:59.000000Z,2020-07-01T05:26:59.000000Z
165,877958047132310,"1421 37th Street NW Washington, DC 20057",941815502594091,,,38.9083677,-77.0714087,,1195471396130558,799887146160951,,,1051724403215349,,,,2020-07-01T05:26:59.000000Z,2020-07-01T05:26:59.000000Z
166,903036719647021,"We Are Family DC Mailing Address",597291118069880,,,38.9334824,-77.0357195,,1229834582759480,585670788788642,,,962322435473993,,,,2020-07-01T05:26:59.000000Z,2020-07-01T05:26:59.000000Z
167,903707682119815,"60 O Street, NW Washington DC 20001",775874603891849,,,38.9082416,-77.0110598,,"998823719958227,1252793336729933,610721171447543",1328301158468902,,,962036505121926,,,,2020-07-01T05:26:59.000000Z,2020-07-01T05:26:59.000000Z
168,856110821321208,"Phyllis Wheatley YWCA",1292630118544041,,,38.9119189,-77.0244661,,1134361757901839,1238122900635736,,928689553150002,750683065369273,,,,2020-07-01T05:26:59.000000Z,2020-07-01T05:26:59.000000Z
169,865063089655254,"Byte Back",605622028340987,,,38.9010559,-77.0085403,,"943023691666873,822081621672598",591752588532619,,950208089897090,1000698980135639,,,,2020-07-01T05:26:59.000000Z,2020-07-01T05:26:59.000000Z
170,870889793389860,"Barracks Row Drop In Center",1306699628219808,,,38.8798611,-76.9951445,,"1249532731729968,1119090357480675",1173443518827100,,,1348528510348782,,,,2020-07-01T05:26:59.000000Z,2020-07-01T05:26:59.000000Z
171,871972134291589,"Contemporary Family Services - DC Georgia Ave",1262229839027778,,,38.9669177,-77.0270752,,"989188268576682,797891805827498,985593774651159",686902171451083,,,1104690815663262,,,,2020-07-01T05:26:59.000000Z,2020-07-01T05:26:59.000000Z
172,876397346396032,AimHire,791950857737387,,,38.9563407,-77.0838769,,615519347288251,1167551989292288,,813982796684360,668005555469731,,,,2020-07-01T05:26:59.000000Z,2020-07-01T05:26:59.000000Z
173,880015218951352,"Church of Our Saviour/Silver Spring",1341330878033407,,,39.0228709,-76.9769054,,653858529595915,779145162518714,,899511741518736,757642919857969,,,,2020-07-01T05:26:59.000000Z,2020-07-01T05:26:59.000000Z
174,902696829688820,"Back Porch Thrift Store",919690199169575,,,38.7212972,-77.1270107,,,837933369101067,,1278852440623209,1180484632326792,,,,2020-07-01T05:26:59.000000Z,2020-07-01T05:26:59.000000Z
175,906651913636867,"Lorton Community Action Center",930909694635560,,,38.6993953,-77.2140415,,"993984406526461,1153962275208345,807848846460860,611590713528319",906987068756792,,"1229690477859335,892622133517119",1276944443091304,,,,2020-07-01T05:26:59.000000Z,2020-07-01T05:26:59.000000Z
176,920364967013405,"Hillcrest - Rhode Island Ave",883186000200856,,,38.911691,-77.0247585,,"1281204672852064,673534610271949,953777853543160,899463533628469,874272763703793,1332300140733520,771396624281852,1123263717880462,1222426882848143,846445553337660,784403343985076,1070582664052295,615186024715740,1105865058729494,946643663102938,651208869509343,1149122872651888,666406976354887,741770132344686,638393936667053,1157294466052185,968013894798831,633712201049185,1250906881501241",1097440010596926,,,646846673243288,,,,2020-07-01T05:26:59.000000Z,2020-07-01T05:26:59.000000Z
177,923653351035648,"60 O Street NW Washington, DC 20001",908756987447173,,,38.9082416,-77.0110598,,577558646630251,626402478477773,,,962036505121926,,,,2020-07-01T05:26:59.000000Z,2020-07-01T05:26:59.000000Z
178,878783319164190,"Seabury at Friendship Terrace",1180598613249590,,,38.949086,-77.0824831,,1183786146199295,"834729047013661,1193975086196099",,,765219405028228,,,,2020-07-01T05:26:59.000000Z,2020-07-01T05:26:59.000000Z
179,890450452640466,"Sixth Presbyterian Church",1257820660406303,,,38.9558956,-77.0359182,,958476585509237,588843626629723,,,760496420622178,,,,2020-07-01T05:26:59.000000Z,2020-07-01T05:26:59.000000Z
180,911858349594317,CSC,948113581207578,,,38.9308135,-77.0325058,,"1210007334289332,832898052878964,645815813705213,1178673163145313,1119572087741816,994497447759686,1070895654294162,1182990804618783,1244196225355763,590895767819582,1096928318806733",615096380531905,,1179201057626161,921919612082211,,,,2020-07-01T05:26:59.000000Z,2020-07-01T05:26:59.000000Z
181,909942619088980,"Southeast Site (Ward 8)",889845893875767,,,38.8427636,-76.9999917,,596474071852609,790733365231464,,"777701460078348,1281999112214963",915998507127869,,,,2020-07-01T05:26:59.000000Z,2020-07-01T05:26:59.000000Z
182,918683698959010,"2700 Martin Luther King Jr. Avenue SE Washington, DC, 20032, US",0,,,,,,1316831396089328,,,,,,,,2020-07-01T05:26:59.000000Z,2020-07-01T05:26:59.000000Z
183,868710877316469,"La Casa Community Health Action Center",887352348953420,,,38.9304207,-77.0382533,,"910692115764601,774338968156105,1235636405349063,674557198522049,1122242214354849,1280840473848403",887062299451299,,1136144186376874,1214063268443455,,,,2020-07-01T05:26:59.000000Z,2020-07-01T05:26:59.000000Z
184,867745425991207,"Lambert House",726173106231202,,,38.8670327,-76.9796751,"The Lambert House provides transitional housing for up to 24 men transitioning from homelessness to independent living.",,1190357120409678,,,567498911423694,,,,2020-07-01T05:26:59.000000Z,2020-07-01T05:26:59.000000Z
185,875107767611380,"Greater Washington Urban League",6.4910198474305E+32,,,38.9269718,-77.0320234,,"1162076105935592,1172793580060024,569770427910971,1229131972445514,1311031611561841,1086482131081597,688871630742360,1166105214343141","691452399025378,1154182835844763,1282196160289513",,1337367582999056,825051851809001,,,,2020-07-01T05:26:59.000000Z,2020-07-01T05:26:59.000000Z
186,885824420758755,"Edgewood Terrace Family Support Program",925199151398185,,,38.9230682,-76.9981019,,1108884623053766,1194161595371590,,900372337520002,895959854542145,,,,2020-07-01T05:26:59.000000Z,2020-07-01T05:26:59.000000Z
187,904892331647550,"City of Praise Family Ministries",1228099889682852,,,38.9078285,-76.8557,,"1122897671715969,1252929483881761,971066029264975",600625677788643,,,818242711886355,,,,2020-07-01T05:26:59.000000Z,2020-07-01T05:26:59.000000Z
188,926855982380347,"The Webster House",1085960322097234,,,38.9438264,-77.0329905,,1184329050770191,906521258220065,,1202819882057306,1249230967488290,,,,2020-07-01T05:26:59.000000Z,2020-07-01T05:26:59.000000Z
189,934635524247698,,0,,,,,,,,,,,,,,2020-07-01T05:26:59.000000Z,2020-07-01T05:26:59.000000Z
190,879768448149613,"Courtney's House - PO Box",1256643221396691,,,38.9052763,-76.9815877,,,,,,635269531544947,,,,2020-07-01T05:26:59.000000Z,2020-07-01T05:26:59.000000Z
191,902044061825216,"Glenmont United Methodist Church",0,,,39.0674965,-77.0593696,,1098880366371154,,,864730590452624,797118402416406,,,,2020-07-01T05:26:59.000000Z,2020-07-01T05:26:59.000000Z
192,897673459565497,"UPO Comprehensive Treatment Center",761153930697275,,,38.8855512,-76.9739373,,928788698938707,725558204724863,,"926816513853435,808903707383571",1247278757376259,,,,2020-07-01T05:26:59.000000Z,2020-07-01T05:26:59.000000Z
193,901362892558172,"Perennial House",662579547117824,,,38.8980819,-76.9375237,,"917742641898170,1292184415850124,577390293811162",645677274573700,,,1244665120116979,,,,2020-07-01T05:26:59.000000Z,2020-07-01T05:26:59.000000Z
194,901614727736762,"2 18th Street SE Washington, DC 20003",1279370086426568,,,38.8895084,-76.978759,,921414115906478,1136094580538324,,,1000199453998485,,,,2020-07-01T05:26:59.000000Z,2020-07-01T05:26:59.000000Z
195,936750287730760,"1126 16th Street NW Washington, DC 20036",1235926278832683,,,38.9044886,-77.0368814,,1260294251529919,1181321443798761,,,671899479947026,,,,2020-07-01T05:26:59.000000Z,2020-07-01T05:26:59.000000Z
196,946508354826345,"JSSA Silver Spring",970560028876577,,,39.0183093,-77.0446628,,"869725690004657,748177592722248","1289392147201269,815545569707089",,806655987955880,1257520076925731,,,,2020-07-01T05:26:59.000000Z,2020-07-01T05:26:59.000000Z
197,890234129642572,"Nativity Shelter",617116824616756,,,38.9633712,-77.0283348,,981580900656027,1130743087965133,,,1146226549543913,,,,2020-07-01T05:26:59.000000Z,2020-07-01T05:26:59.000000Z
198,905037841940941,"Shrine of the Sacred Heart",1279230501938511,,,38.9311199,-77.0358506,,1164006971785156,781647570742420,,668143820192889,1149735320929251,,,,2020-07-01T05:26:59.000000Z,2020-07-01T05:26:59.000000Z
199,912957411649595,"Rapid Rehousing and Employment Teams",1195870505334629,,,38.8438596,-76.9992043,,,1138712052293951,,,1063588826833039,,,,2020-07-01T05:26:59.000000Z,2020-07-01T05:26:59.000000Z
200,920572231138004,"Open Arms Housing",787727417537507,,,38.9087932,-77.0109698,,"634028809032783,1024397676156151,1279217562065520",1130020356495609,,819527791411716,663934110398598,,,,2020-07-01T05:26:59.000000Z,2020-07-01T05:26:59.000000Z
201,928012146500435,"Creekside Village Community Center",919690199169575,,,38.743995,-77.0931279,,"1273613208251491,786302163414865",746366368083217,,554058492941520,1126520692919525,,,,2020-07-01T05:26:59.000000Z,2020-07-01T05:26:59.000000Z
202,928679802213891,"901 G Street NW Washington, DC 20001",1295401458610005,,,38.8986823,-77.024871,,1153264572449660,758285624313707,,,1042280248130731,,,,2020-07-01T05:26:59.000000Z,2020-07-01T05:26:59.000000Z
203,927124137825677,"Northwood High School",0,,,39.03571,-77.022065,,,,,615195958300567,768507835180104,,,,2020-07-01T05:26:59.000000Z,2020-07-01T05:26:59.000000Z
204,936934819762396,"Everyone Home DC Headquarters",1245236106154921,,,38.895629,-77.0032764,,"753253159497862,597642797256208,1087270111823708,857913961326886",735608882009072,,"1170433044969408,832596400468443",811198505758894,,,,2020-07-01T05:26:59.000000Z,2020-07-01T05:26:59.000000Z
205,948165240614648,"170114th Street NW Washington, DC 20009",1280475814917857,,,,,,684439431487008,912916861756268,,,,,,,2020-07-01T05:26:59.000000Z,2020-07-01T05:26:59.000000Z
206,952434908769061,"Northeastern Presbyterian Church",1097044507649764,,,38.9431552,-76.9749723,,849003153117298,930974123497646,,602018276076140,1275033807968921,,,,2020-07-01T05:26:59.000000Z,2020-07-01T05:26:59.000000Z
207,956369396938800,"Domestic Violence Intake Center (DVIC) – SE",1091757696945828,,,38.8361605,-76.9842934,,950151604773646,"1289374770713295,1234325977097951",,937440662643840,965737501077000,,,,2020-07-01T05:26:59.000000Z,2020-07-01T05:26:59.000000Z
208,916631371752727,"Children's Law Center",1097944906840777,,,38.8965812,-77.0147134,,1102556254964153,"1337254835856329,1230762582745771",,793579841100199,853785764079416,,,,2020-07-01T05:26:59.000000Z,2020-07-01T05:26:59.000000Z
209,917067382016969,,1210512793158453,,,,,,,,,,,,,,2020-07-01T05:26:59.000000Z,2020-07-01T05:26:59.000000Z
210,924628911683577,"Jewish Council for the Aging of Greater Washington",855094084464049,,,39.0588554,-77.111526,,"1282487813090005,616047069998063,993493444765030,1141624870158332,1147690047097756,644091225156703,1280474482709655,588693422814528,1289508652850921,602724412494897,1106771248483191,893746684671899,657179015884472,1134764669826308,1135905810909481,563588572334023,627760898509669,834471316045858,723134469644452,789912082269332,619922899003410,1342596886767460",,rectZv3PMzapf0oyr,,1050035692418764,,,,2020-07-01T05:26:59.000000Z,2020-07-01T05:26:59.000000Z
211,932319171762566,"Location based on service ",1043772486617212,,,,,,,,,,,,,,2020-07-01T05:26:59.000000Z,2020-07-01T05:26:59.000000Z
212,935220481179962,"DC Public Library: The Adult Literacy Resource Center",1154572477664352,,,38.9020363,-77.0445171,,887937499803617,,,1316965531777415,618422560177652,,,,2020-07-01T05:26:59.000000Z,2020-07-01T05:26:59.000000Z
213,957585009039168,"The Salvation Army Solomon G. Brown",0,,,38.8629362,-76.9912175,,940345726334678,,,,1205767697739732,,,,2020-07-01T05:26:59.000000Z,2020-07-01T05:26:59.000000Z
214,955920420939787,"Skyland Workforce Center/Southeast DC",1341330878033407,,,38.86047,-76.9690317,,653858529595915,"1240962571903687,798196836607721",,1315075616326203,1125465450764814,,,,2020-07-01T05:26:59.000000Z,2020-07-01T05:26:59.000000Z
215,916613468118556,"Sherman Avenue Single Room Occupancy (SRO)",1085960322097234,,,38.9264462,-77.0261081,,893345439899253,1202903945491491,,1202819882057306,628765225467948,,,,2020-07-01T05:26:59.000000Z,2020-07-01T05:26:59.000000Z
216,925102157397517,"1717 Columbia Road NW Washington, DC, 20009, US",0,,,,,,574349076267569,,,,,,,,2020-07-01T05:26:59.000000Z,2020-07-01T05:26:59.000000Z
217,932196643976542,"1133 North Capitol Street NE Washington, DC 20001",874969319589202,,,38.9330903,-76.9931954,,862747362682708,963793524928249,,,812536589441629,,,,2020-07-01T05:26:59.000000Z,2020-07-01T05:26:59.000000Z
218,938406735971229,"Josephine Butler Parks Center",640186123610411,,,38.9224819,-77.0349022,,1237806236278461,1126250650450819,,1099909899297811,838941505712500,,,,2020-07-01T05:26:59.000000Z,2020-07-01T05:26:59.000000Z
219,946396771118356,"Women's Collective",925360037107607,,,38.9177239,-76.9767439,,"1301959132503150,1124462892366916,914835976451142",640736255097589,,541049857727175,1134563231552544,,,,2020-07-01T05:26:59.000000Z,2020-07-01T05:26:59.000000Z
220,946031179775955,"651 Pennsylvania Ave., SE Washington, DC 20003",0,,,,,,"802246956701009,805523882999344",,,,,,,,2020-07-01T05:26:59.000000Z,2020-07-01T05:26:59.000000Z
221,947853021041099,"Housing Counseling Services - Main Office",574964812525513,,,38.9221357,-77.0396702,,"1140570813901169,627629263527494,1243832082519507,705771849785076,841132371028942,581022793280171",1178055279307047,,"1172938193660785,1238194930050189",1138176448388213,,,,2020-07-01T05:26:59.000000Z,2020-07-01T05:26:59.000000Z
222,953406517143083,"820 Chesapeake Street SE Washington, DC 20032",1300690778936362,,,38.8293787,-76.9924325,,1288975729182572,960149581422207,,,605557371997807,,,,2020-07-01T05:26:59.000000Z,2020-07-01T05:26:59.000000Z
223,931728525653879,"NLSP Headquarters",820488001755900,,,38.9091966,-77.0064165,,"940202748401268,813553671875388,806428640646955,1109436994306012,718050681265809,1224083578603659,1214476217655096","1129255270268768,1306671573537849",,"1199926477647156,1084017663290159",669385991599023,,,,2020-07-01T05:26:59.000000Z,2020-07-01T05:26:59.000000Z
224,939076222269480,"Atlantic Homes",0,,,38.8277704,-77.0027121,,859629175967195,,,,760369360005535,,,,2020-07-01T05:26:59.000000Z,2020-07-01T05:26:59.000000Z
225,939050372857166,"Wheaton Welcome Center",1140996665222837,,,39.0422653,-77.0528934,,,"1184988992731200,953481840997521,1090592201973063",,870046452254228,870611606988054,,,,2020-07-01T05:26:59.000000Z,2020-07-01T05:26:59.000000Z
226,947434898715713,"Martha's Table Headquarters at the Commons",1279230501938511,,,38.8548975,-76.9844872,,"1224237784751973,923438177610839,881381167741606,1298968199365502,943841633351922,632654541686281",1235881686916009,,"1296414037325068,1261160479251726,1322088797774961,1128449542578572,799792178245127",1273798320035626,,,,2020-07-01T05:26:59.000000Z,2020-07-01T05:26:59.000000Z
227,945061241324147,"Contemporary Family Services - MD",1262229839027778,,,38.9694937,-76.952895,,"797891805827498,989188268576682",,,,1156542764196212,,,,2020-07-01T05:26:59.000000Z,2020-07-01T05:26:59.000000Z
228,956135951962872,"Domestic Violence Intake Center (DVIC) – NW",1091757696945828,,,38.8941,-77.018393,,950151604773646,"1289374770713295,1234325977097951",,937440662643840,1002479240399098,,,,2020-07-01T05:26:59.000000Z,2020-07-01T05:26:59.000000Z
229,968722175760593,"McClendon Center - Core Services Agency",1220107638243156,,,38.9084211,-77.0093647,,1107300725870426,769661238673808,,641591436499223,1141142036651515,,,,2020-07-01T05:26:59.000000Z,2020-07-01T05:26:59.000000Z
230,968786376614445,"Contemporary Family Services - DC Minnesota AVe",1262229839027778,,,38.8763069,-76.965516,,"989188268576682,797891805827498,985593774651159",686902171451083,,,594681114588627,,,,2020-07-01T05:26:59.000000Z,2020-07-01T05:26:59.000000Z
231,977589590864235,"JSSA Rockville - Fallsgrove",970560028876577,,,39.1016604,-77.1887297,,"1173963793862866,869725690004657,1107634998787398,989819878149890,658231090559812,947357493854904,767255821745825,884244585280076,970377297500925,748177592722248","630919511118386,815545569707089",,"573957674876281,773649767743777",863218507660277,,,,2020-07-01T05:26:59.000000Z,2020-07-01T05:26:59.000000Z
232,984058750613797,"Asbury United Methodist Church",900455754248217,,,38.9019605,-77.0272552,,"592511260613384,1239703812521018,849919523533582","1224416978291385,931894948994087",,776532681871781,944084611081362,,,,2020-07-01T05:26:59.000000Z,2020-07-01T05:26:59.000000Z
233,987030255962297,"Main Office",919690199169575,,,38.7537763,-77.0851809,,"1311595168931297,950454120432775,1048291243097604,1298911741733382,824288922961198,1180623233814950,1056286703581712",927006793998791,,"717231166133554,895016590852441,637262321593026,1300776409918544",611571036444170,,,,2020-07-01T05:26:59.000000Z,2020-07-01T05:26:59.000000Z
234,931886810745529,"Friendship Place Welcome Center",791950857737387,,,38.9513627,-77.0805794,,"621104147916374,978590256683513,647772152541651,647183151936796,1305546200651894,838774263465115,1298309949522497,1128282500996664,948283799474714,883344454564664",1235107925689722,,"952322142188080,1042246873120846,803785847917866,1277898146406252,1075131025312672,822138509409088,795731873911297",1152494666421051,,,,2020-07-01T05:26:59.000000Z,2020-07-01T05:26:59.000000Z
235,933134498085222,"765 Kenilworth Terrace NE Washington, DC, 20019, US",0,,,,,,"767585807206000,630366887360887,833155783547619,1133489323155206",,,,,,,,2020-07-01T05:26:59.000000Z,2020-07-01T05:26:59.000000Z
236,945081690439180,PIDARC,807867907645287,,,38.8972128,-77.0469182,,1077603109327544,612423782652894,,,1253212858247868,,,,2020-07-01T05:26:59.000000Z,2020-07-01T05:26:59.000000Z
237,948736838709158,"Anacostia/Southeast DC",1341330878033407,,,38.8658071,-76.9858852,,653858529595915,"1116577714869583,929291849442144",,1315075616326203,1291310824415800,,,,2020-07-01T05:26:59.000000Z,2020-07-01T05:26:59.000000Z
238,950009053464384,"Adventist Community Services of Greater Washington",1004391421304549,,,38.9917266,-77.0117802,,"990258942674234,804988563046565,668729683192909,822297863188980,1108768153867457,784134299150571,607885233270947",937322777502476,,1115292082523782,877682236637760,,,,2020-07-01T05:26:59.000000Z,2020-07-01T05:26:59.000000Z
239,959373006921454,"Wanda Alston House Main Office",636426656659289,,,38.8945084,-77.0116897,,957722583611343,"625109799377934,960390601927225,601304296449089",,,683177016827244,,,,2020-07-01T05:26:59.000000Z,2020-07-01T05:26:59.000000Z
240,960698141024048,,0,,,,,,,,,,,,,,2020-07-01T05:26:59.000000Z,2020-07-01T05:26:59.000000Z
241,965470521205325,"Seabury at Springvale Terrace",1180598613249590,,,38.9986427,-77.0212272,,1183786146199295,"1276798845366676,617836889203042",,,978117321314014,,,,2020-07-01T05:26:59.000000Z,2020-07-01T05:26:59.000000Z
242,979447652621070,"Northern Virginia Outpatient Center",1061724977026001,,,38.8684229,-77.2357554,,"1262392779353939,667209917494721,1176014704120176,936510517377927,775820607481251","843423509819043,850808226653987",,1095419747725144,1067302604787333,,,,2020-07-01T05:26:59.000000Z,2020-07-01T05:26:59.000000Z
243,984945374868800,"Girard St Apartments",1195870505334629,,,38.9256492,-77.033103,,757654002604408,1009882132687958,,,1180267371580937,,,,2020-07-01T05:26:59.000000Z,2020-07-01T05:26:59.000000Z
244,988704048030141,"118 Brookley Avenue Washington, DC 20032",845885697863453,,,38.8449322,-77.01131,,1148230459385861,951901541718626,,,687643573533420,,,,2020-07-01T05:26:59.000000Z,2020-07-01T05:26:59.000000Z
245,995652098008403,"Ambassador Baptist Church",789345230945555,,,38.8669965,-76.9841527,,,,,,954880034228751,,,,2020-07-01T05:26:59.000000Z,2020-07-01T05:26:59.000000Z
246,1002753920993717,"Elaine Ellis MD",605134586578120,,,39.0178048,-76.9197707,,"956817646477291,822106893088278,609582364629457,1060160690284572,800106312438349,743182672086208,995363917586083","877271835912480,899126386042540",,"1321570127371250,777400646901906,619611122248463,1106120630749215",1128987918758522,,,,2020-07-01T05:26:59.000000Z,2020-07-01T05:26:59.000000Z
247,964488569008973,,0,,,,,,,,,,,,,,2020-07-01T05:26:59.000000Z,2020-07-01T05:26:59.000000Z
248,984797957299107,,1172521016075482,,,,,,,,,,,,,,2020-07-01T05:26:59.000000Z,2020-07-01T05:26:59.000000Z
249,994012462825446,HIPS,810479025131545,,,38.9004055,-76.9933526,,"775111969675006,836738857450646,937486843530248,911181735974447",,,"1116823258971812,755877120889008,1239359074339438",1115958014521430,,,,2020-07-01T05:26:59.000000Z,2020-07-01T05:26:59.000000Z
250,992745211312122,"Senior Wellness Center",840733417398800,,,38.9336503,-77.023658,,,634775044632505,,1151611571588267,863305768883668,,,,2020-07-01T05:26:59.000000Z,2020-07-01T05:26:59.000000Z
251,1000709017081839,"Family Health and Birth Center",1195870505334629,,,38.900787,-76.9780775,,"859897161557047,850523592271025,1255893170172420,617097787641398,735696343430795,747822750998769,1121979483597520",785030046200943,,"1133644382136224,849922591487683,774772066237737,922694115907703,1197713243335218",920259856619905,,,,2020-07-01T05:26:59.000000Z,2020-07-01T05:26:59.000000Z
252,1005730911773458,"1620 North Capitol Street NW Washington, DC 20002",862349068568843,,,38.911733,-77.009411,,1020841973640307,971023796358171,,,796408821097223,,,,2020-07-01T05:26:59.000000Z,2020-07-01T05:26:59.000000Z
253,951106217202607,"Sasha Bruce - PHP",1306699628219808,,,38.8638486,-76.9797426,,1322260694270949,874482698067575,,,654333290489949,,,,2020-07-01T05:26:59.000000Z,2020-07-01T05:26:59.000000Z
254,965499960712698,"220 I Street NE Washington, DC 20002",1200699271788672,,,38.9015096,-77.0026014,,1066946772206101,1257072601349282,,,806093396765868,,,,2020-07-01T05:26:59.000000Z,2020-07-01T05:26:59.000000Z
255,975869217753458,"828 Evarts Place, NE Washington, DC, 20018, US",0,,,,,,990274038416855,,,,,,,,2020-07-01T05:26:59.000000Z,2020-07-01T05:26:59.000000Z
256,979563581148756,"Silver Spring Welcome Center",1140996665222837,,,38.9975705,-76.9930849,,617081192222015,"1184988992731200,1230683467022899,1008096048941764,598769248157949",,"846602095558224,878447457899091",1210638555366240,,,,2020-07-01T05:27:00.000000Z,2020-07-01T05:27:00.000000Z
257,984550353973330,"2523 14th Street NW Washington, DC 20009",745762970824360,,,38.9233108,-77.0315736,,802536341225895,866416565083229,,,780151548177804,,,,2020-07-01T05:27:00.000000Z,2020-07-01T05:27:00.000000Z
258,994308933727557,"Assumption Catholic Church",1150695227682882,,,38.8411644,-77.0041536,,"1174068491618790,642601279257974","890796480764789,1288285234857948,866347409656142,576203813370859,1068293081202730",,,1245750861687096,,,,2020-07-01T05:27:00.000000Z,2020-07-01T05:27:00.000000Z
259,999755198000719,"UPO Anacostia Community Service Center",761153930697275,,,38.865727,-76.9807327,,"1213230585541920,1219686317955585,1133165843084453,1052254032756894,1253744104425599,777260696695053,1300660045853572,807525744099302,874199505765345,1187200756463947,1296433586474206,924655410570415,943779508068444,794796274007587,916436632015801,602650991439185",1259667859611659,,682372519823224,1166860713798541,,,,2020-07-01T05:27:00.000000Z,2020-07-01T05:27:00.000000Z
260,1012923803825523,"1001 Lawrence Street NE Washington, DC 20017",1331447374298751,,,38.9313023,-76.9921625,,662641889613680,1188739171637564,,,638813775258256,,,,2020-07-01T05:27:00.000000Z,2020-07-01T05:27:00.000000Z
261,1019389671178070,"Colesville Presbyterian Church",0,,,39.0634603,-77.0031056,,1098880366371154,,,821589713313328,834422660772346,,,,2020-07-01T05:27:00.000000Z,2020-07-01T05:27:00.000000Z
262,964869638930274,"Mary's Center Fort Totten, DC",840733417398800,,,38.9529194,-77.0074605,,"1259349665237657,1189947540122655,969095511875672,1147407982912051,1208776169183354,739078424499970,580520440912412,1249176990484846,637113061667348,615988503257217,918238055415108,1280256361717353,1028365853402776,1035362732313948,586062612640149,727116699390008,924435449967844,966657126572943,767682966554088,948956237360164,872823918122712","1301804131597006,1263593198567823",,"575613458279114,644550844370242,827996522503929,1122650673825457,989925731426078",962742212670581,,,,2020-07-01T05:27:00.000000Z,2020-07-01T05:27:00.000000Z
263,959978038980815,Headquarters,1326157862705937,,,38.9007004,-76.9429256,,"1105568722092716,721115353360225,1135621422748851,1215651158311524,784662874544792,699918289813778,1055385917949527,597026276891169,1020934285482366,585407675930864,794816074234794,1206891395647206,985012947614539","1211781059829341,1309068726775336",,,817410769508748,,,,2020-07-01T05:27:00.000000Z,2020-07-01T05:27:00.000000Z
264,1001921907887485,"Nazarene Outpost Ministries",1276678931351667,,,38.9158405,-77.0127132,,"1120743935334776,1104683959276927,653156323573606",842254025136504,,,753150645151105,,,,2020-07-01T05:27:00.000000Z,2020-07-01T05:27:00.000000Z
265,1027459128839995,"1333 N Street NW Washington, DC, 20005, US",0,,,,,,915917142791989,,,,,,,,2020-07-01T05:27:00.000000Z,2020-07-01T05:27:00.000000Z
266,1045557663297574,"1150 Varnum Street NE Washington, DC 20017",1110735130668467,,,38.9437638,-76.9915731,,1230192545630197,857944483379087,,,854499289805909,,,,2020-07-01T05:27:00.000000Z,2020-07-01T05:27:00.000000Z
267,1052799655566995,"Legal Aid Society of DC - The “Big Chair”",1091757696945828,,,38.8659856,-76.9897776,,"1088296624271784,871063337645437,1098665459896297,757455042685009","1289374770713295,1234325977097951",,1155614982637715,1157364802959844,,,,2020-07-01T05:27:00.000000Z,2020-07-01T05:27:00.000000Z
268,1069725146672559,"A Wider Circle Mailing Address",692112692154000,,,38.985632,-77.0973201,,,"877523491860439,780596419575738",,"646160018921336,1236548249618145",923808216417671,,,,2020-07-01T05:27:00.000000Z,2020-07-01T05:27:00.000000Z
269,1091888223201074,"Falls Church Welcome Center",1140996665222837,,,38.8830073,-77.1784193,,1090898575973829,"1184988992731200,799225207997440,1111869997679664",,554499668370440,1140367088046682,,,,2020-07-01T05:27:00.000000Z,2020-07-01T05:27:00.000000Z
270,1044869288351593,"Community Connections - Main Office",802521051916688,,,38.8836013,-76.994593,,"599402007780126,907595418658961,822492274972082,845758882609427,1216556310653957,1180091016211141,984528775573917,586827752329383,789715981823462,793847249153498,915711679952561",1125537818767812,,,872487510282336,,,,2020-07-01T05:27:00.000000Z,2020-07-01T05:27:00.000000Z
271,1045140628063947,"St. Stephen and the Incarnation",8.6522986399477E+32,,,38.9334824,-77.0357195,,"964209508718168,896288673327409",,,,962322435473993,,,,2020-07-01T05:27:00.000000Z,2020-07-01T05:27:00.000000Z
272,1053529725692782,"NLSP Far Northeast Office",820488001755900,,,38.9091993,-76.9359706,,"940202748401268,813553671875388,806428640646955,1109436994306012,718050681265809,1224083578603659,1214476217655096","1129255270268768,671559490002009",,"1199926477647156,1084017663290159",762902046422581,,,,2020-07-01T05:27:00.000000Z,2020-07-01T05:27:00.000000Z
273,1058560288612968,"Bread for the City Southeast Center",618997848324116,,,38.8662494,-76.9810927,,"834460550368169,1298050850536077,775927218674309,1223965805414362",606695908675970,,1126042040218943,786471426290380,,,,2020-07-01T05:27:00.000000Z,2020-07-01T05:27:00.000000Z
274,1092240686471329,"4900 Puerto Rico Avenue, NE Washington, DC 20017",1191959686811989,,,,,,,,,,,,,,2020-07-01T05:27:00.000000Z,2020-07-01T05:27:00.000000Z
275,1106602330344467,"Covenant House Washington",1323664977480953,,,38.8435269,-76.9742231,,"953668428109766,1147909066828937,978169761735866,885835927138322,875542904723327,963779263900815,1105456695695453,1212544141593855,682308202362189","775081687772349,613066881487958",,1272942074938025,899989255714132,,,,2020-07-01T05:27:00.000000Z,2020-07-01T05:27:00.000000Z
276,1052806219928789,"Riverside Healthy Living Center",640186123610411,,,38.897302,-76.925709,,1007199538654431,1198829430756347,,,1108569071838139,,,,2020-07-01T05:27:00.000000Z,2020-07-01T05:27:00.000000Z
277,1092213609334000,"1300 First Street, NE, 2nd Floor Washington, DC 20002",1183105756467350,,,38.9075083,-77.0063357,,811998666629450,769779896741380,,,1186879796731815,,,,2020-07-01T05:27:00.000000Z,2020-07-01T05:27:00.000000Z
278,1054369210651155,"Hillcrest - MLK Jr. Ave",883186000200856,,,38.844288,-76.9985519,,"1281204672852064,673534610271949,953777853543160,899463533628469,874272763703793,1332300140733520,771396624281852,1123263717880462,1222426882848143,846445553337660,784403343985076,1070582664052295,615186024715740,1105865058729494,946643663102938,651208869509343,1149122872651888,666406976354887,741770132344686,638393936667053,1157294466052185,968013894798831,633712201049185,1250906881501241",,,,1261416234116596,,,,2020-07-01T05:27:00.000000Z,2020-07-01T05:27:00.000000Z
279,1083708956779513,"Sasha Bruce House",1306699628219808,,,38.8970231,-76.991825,,"1307622731573519,865371846794230,838392358604924,1238586489770478,758846747979067,753964791303094",1309000420353930,,,626337120120757,,,,2020-07-01T05:27:00.000000Z,2020-07-01T05:27:00.000000Z
280,1109839475209474,"1905 E Street SE Washington, DC 20003",593530875968066,,,38.8828164,-76.9772039,,961738059568521,883515995625764,,,538706638880734,,,,2020-07-01T05:27:00.000000Z,2020-07-01T05:27:00.000000Z
281,1133664511724903,"Marvin Gaye Greening Center",640186123610411,,,38.8993118,-76.9282047,,"920973469831730,1318218238602449,1007199538654431",1126250650450819,,"1186410017519358,976209607538308",906270690131919,,,,2020-07-01T05:27:00.000000Z,2020-07-01T05:27:00.000000Z
282,1089405934692969,"5335 Wisconsin Avenue NW Washington, DC 20011",801265724461963,,,38.9603613,-77.0846863,,1048055694684936,1003126161348750,,,570426365726754,,,,2020-07-01T05:27:00.000000Z,2020-07-01T05:27:00.000000Z
283,1090162375763715,"Conway Health And Resource Center",1195870505334629,,,38.8313484,-77.008632,,"859897161557047,1267727721478414,850523592271025,1255893170172420,735696343430795,747822750998769,1022185739742814,784304581015971","1279880844015186,846201766185688,763524779006557",,"1257079363804425,1223815259564202,1305096827911095,1270512922612605,1168145184682128,849762282889895,856292695140924",1016957397804274,,,,2020-07-01T05:27:00.000000Z,2020-07-01T05:27:00.000000Z
284,1108000021700211,"Northwest DC",1341330878033407,,,38.9527271,-77.0358244,,653858529595915,"1313749480020796,1278070780621235",,1152519788404891,915426938281998,,,,2020-07-01T05:27:00.000000Z,2020-07-01T05:27:00.000000Z
285,1112335428289741,"Crowder Food Bank",1107997028998056,,,38.9198591,-76.9981019,,567631577251008,"1118383435935760,872643474789883,750948313560406",,1101290539053259,826486612406662,,,,2020-07-01T05:27:00.000000Z,2020-07-01T05:27:00.000000Z
286,1120989994777643,"Mazique at DFC",612828763371641,,,38.900787,-76.9780775,,"1209187247938710,792954474348824",656788894579634,,,920259856619905,,,,2020-07-01T05:27:00.000000Z,2020-07-01T05:27:00.000000Z
287,1128869310018968,"3020 14th Street NW Washington, DC 20009",1119446546918981,,,38.9281612,-77.032968,,939026297030865,1186694314218565,,,890675606845092,,,,2020-07-01T05:27:00.000000Z,2020-07-01T05:27:00.000000Z
288,1130006642102532,"Community Connections - The Center for Families and Children",802521051916688,,,38.8938413,-77.0203724,,"1296730701251441,956342437760431",,,,603553623654573,,,,2020-07-01T05:27:00.000000Z,2020-07-01T05:27:00.000000Z
289,1108850981657232,"Wendt Connecticut",769893937425938,,,38.9434867,-77.0626075,,"1013626780767014,830099986846686,1191542329896840,1225791609508431,579430499829276,623630268141505,873979070344056,910741093310618,942712017441428,1332764177181120,1272292641029297,672539129008408,1080520592440176,827029786281023","1137743103213639,900284612419562",,,1231165117410316,,,,2020-07-01T05:27:00.000000Z,2020-07-01T05:27:00.000000Z
290,1109469871110801,"2812 Pennsylvania Avenue, SE",1185296657231877,,,38.2702751,-76.750966,,961034015650386,1204679365500804,,,820809720654118,,,,2020-07-01T05:27:00.000000Z,2020-07-01T05:27:00.000000Z
291,1115728022119882,"Piney Branch Elementary School",1004391421304549,,,38.9822809,-77.0093952,,1080087105483732,858214841580026,,,1277125914875683,,,,2020-07-01T05:27:00.000000Z,2020-07-01T05:27:00.000000Z
292,1147455525775238,"Clean and Sober Streets",1318451956583107,,,38.8954586,-77.0133543,,"936863331676390,968057316664450,1178562151177693,636134392103308",883461165895110,,791026998160033,711002699024806,,,,2020-07-01T05:27:00.000000Z,2020-07-01T05:27:00.000000Z
293,1091435530922324,"Multicultural Center (MCC)",1140996665222837,,,38.990764,-76.981483,,"617081192222015,1241641820248132,1216690927743518,881475888864647,834347484127358,914537946909052,627323919512057,886788508609002","856919957289680,1279959054833190",,"736089112142715,940374540509771",836261919910340,,,,2020-07-01T05:27:00.000000Z,2020-07-01T05:27:00.000000Z
294,1098817401970888,"Perry School Community Services Center",931366816861797,,,38.9053115,-77.0127649,,"1125350403679270,576262745925884,1211369825885952,580120354830667,1150307807148693,1208786629108154,825628435745785",763139241210372,,802405581688320,896277574789110,,,,2020-07-01T05:27:00.000000Z,2020-07-01T05:27:00.000000Z
295,1112049443949860,"Nineteenth Street Baptist Church",653128415848094,,,38.9467007,-77.0369714,,931334254553785,883038530126196,,,980961391787895,,,,2020-07-01T05:27:00.000000Z,2020-07-01T05:27:00.000000Z
296,1118428224846105,"5 Thomas Circle NW Washington, DC 20005",1196862576129712,,,38.9064906,-77.0325632,,983621321487069,1049625214474916,,,1123054317753711,,,,2020-07-01T05:27:00.000000Z,2020-07-01T05:27:00.000000Z
297,1135122975308953,"Camp Bennett Retreat and Conference Center",726173106231202,,,39.193383,-77.064886,,580719808472057,569071299085270,,,1175347461652522,,,,2020-07-01T05:27:00.000000Z,2020-07-01T05:27:00.000000Z
298,1140386841515505,FLOC,601937487816671,,,38.8810939,-76.9881373,,"1244747959773878,1171417382872545","796654497660631,907838847178020",,,766532349524044,,,,2020-07-01T05:27:00.000000Z,2020-07-01T05:27:00.000000Z
299,1150129069386124,"Northwest DC Office",908300362827413,,,38.9246103,-77.0407159,,"881403344964972,1162907800070547",1313473502046025,,"903053826297447,1250551652902957",638447966180396,,,,2020-07-01T05:27:00.000000Z,2020-07-01T05:27:00.000000Z
300,1154084082448020,"Seabury - Home First Residences & Age-In-Place",1180598613249590,,,38.92263,-76.978202,,"1052874613014434,1183786146199295",916659889937804,,1087732244328529,1137042288285597,,,,2020-07-01T05:27:00.000000Z,2020-07-01T05:27:00.000000Z
301,1163808823186351,"2041 Georgia Avenue NW Washington, DC 20060",636208133431880,,,38.9175305,-77.0204417,,811709644888130,1044619598652325,,,1200743429012601,,,,2020-07-01T05:27:00.000000Z,2020-07-01T05:27:00.000000Z
302,1101386810121427,"Safe Shores",1164024351359039,,,38.908842,-77.0170412,,"927643315007217,902098981922569,1290043633447090,1138943294791040,1181830707554784,1153502278841700",1171658960657370,,597458689446427,960248296759213,,,,2020-07-01T05:27:00.000000Z,2020-07-01T05:27:00.000000Z
303,1104646684650585,"JSSA Rockville - Montrose",970560028876577,,,39.0534464,-77.1240222,,"678882337307747,1052463055100883,899139018547334,762171918332918,1127640457224641,970377297500925,964012421803449,1201397185768590,785647685413221,833788770520302,641610186670486","908138764728730,815545569707089",,"799390782148011,823008542949204,790762956605328",1328302797893590,,,,2020-07-01T05:27:00.000000Z,2020-07-01T05:27:00.000000Z
304,1123014911424110,"Neuropsychology at Montgomery County Outpatient Center",1061724977026001,,,39.1079986,-77.1877863,,1176014704120176,"936399096455093,737339265971542",,587218394770946,941935819463300,,,,2020-07-01T05:27:00.000000Z,2020-07-01T05:27:00.000000Z
305,1140332291662029,"1201 S Capitol Street SW Washington, DC 20003",1120305351510755,,,38.8758715,-77.0094401,,577138792955216,1001002757285869,,,578228161038746,,,,2020-07-01T05:27:00.000000Z,2020-07-01T05:27:00.000000Z
306,1146981306227913,"National Baptist Memorial Church",1085490883099798,,,38.9271214,-77.0360257,,"937906584225930,961164325265072,816660270769024",731593628942678,,1180879869816632,1217909742971397,,,,2020-07-01T05:27:00.000000Z,2020-07-01T05:27:00.000000Z
307,1170113060894673,"LCDP 15th St",887352348953420,,,38.9258922,-77.0352621,,"942312969809968,921815945825806,1181081521839444,1096755308957020,1119079742925957,890398981649041,543629082697964,1241974546153013,787452341993968,1235636405349063,674557198522049,1122242214354849","1143026726991574,853098088747359,660265936787847",,"1202170493625306,686273477676422",1080723808883365,,,,2020-07-01T05:27:00.000000Z,2020-07-01T05:27:00.000000Z
308,1116781625364190,"Marshall Heights Community Development Organization",844234717265246,,,38.8938648,-76.9471832,,"595263959299318,770135966287034,831138417529715,1211572108731192",1161638800071039,,887181369602868,802890951138045,,,,2020-07-01T05:27:00.000000Z,2020-07-01T05:27:00.000000Z
309,1159564548417950,"LAYC - Washington DC Center",1323195974089796,,,38.9277554,-77.0332829,,"1088833752301562,871635119190314,1158010282443707,685821962980238,1249659581366985,1234003496832541,1140318024724985,636733000958441,637918031832415","1087645166547434,1198575506619755",,"920999838182205,1016645181977967",1288365969354186,,,,2020-07-01T05:27:00.000000Z,2020-07-01T05:27:00.000000Z
310,1161498401444320,"Ayuda North DC Office",795756022910298,,,38.9736702,-77.0140741,,"1120365239019390,1098998360726289,940105141272489",,,1293458865219367,738259216161094,,,,2020-07-01T05:27:00.000000Z,2020-07-01T05:27:00.000000Z
311,1185866432124387,"1022 Maryland Avenue NE Washington, DC 20002",1276788103667282,,,38.8970231,-76.991825,,780601488413554,742520224803831,,,626337120120757,,,,2020-07-01T05:27:00.000000Z,2020-07-01T05:27:00.000000Z
312,1154204314985719,"202 Custer Road Fort Myer, VA 22211",888574254962004,,,38.8861756,-77.0805721,,668963134824856,626788602103326,,,1214906324166131,,,,2020-07-01T05:27:00.000000Z,2020-07-01T05:27:00.000000Z
313,1166799153375505,"Wendt MLK",769893937425938,,,38.8659856,-76.9897776,,"1013626780767014,830099986846686,1191542329896840,1225791609508431,579430499829276,623630268141505,873979070344056,910741093310618,942712017441428,1332764177181120,1272292641029297,672539129008408,1080520592440176,827029786281023","1169215057325985,679656889022644",,,622488765022102,,,,2020-07-01T05:27:00.000000Z,2020-07-01T05:27:00.000000Z
314,1186014650404910,"N Street Village Main Office",1186080684764999,,,38.9075729,-77.0314836,,"761018228722418,679830596478752,645384002034771,1135056817241313,644648091160119,1224317983369922,1248931277100420,734280780069484,1088249391392945","876749748721110,1260394353602193",,587111670709851,929144501518325,,,,2020-07-01T05:27:00.000000Z,2020-07-01T05:27:00.000000Z
315,1191890430739322,"Mamatoto Village",1088589897673997,,,38.8940638,-76.9346425,,"1220271139140877,1092577874332799,1017815111476074,1135169686375345","644056895061746,867238429645312",,"1259025264194553,840380756273952",948258077222906,,,,2020-07-01T05:27:00.000000Z,2020-07-01T05:27:00.000000Z
316,1146632771763115,"Marie Reed Health Center",1195870505334629,,,38.9192027,-77.0403449,,"859897161557047,1267727721478414,850523592271025,735696343430795,747822750998769,784304581015971",665495770462606,,"1201313382171851,961771055926549,1271715775560973,595037108371835,568614343543607,948180855277876,1222464336020541",771726091253980,,,,2020-07-01T05:27:00.000000Z,2020-07-01T05:27:00.000000Z
317,1161640092680179,PABC,1326157862705937,,,38.8712006,-76.963811,,,"613925188728049,1169367921365761",,,867972003847885,,,,2020-07-01T05:27:00.000000Z,2020-07-01T05:27:00.000000Z
318,1175342324463616,"SHABACH! Emergency Empowerment Center",584105465886479,,,38.89487,-76.849975,,"805800258888513,837954913596387,911320628244521,1252702593988888,942923225062781,867793861079810,860988302609734,801481287749333,931637209705712,955750891211425",1253724292834687,recwXVP7AbOurNcNL,,1268284710606478,,,,2020-07-01T05:27:00.000000Z,2020-07-01T05:27:00.000000Z
319,1189388637168303,"HCS Ward 7 Housing Empowerment Center",574964812525513,,,38.9049824,-76.9282583,"Operating out of the Antioch Baptist Church.",,"916077019265036,676485134262687,1178055279307047",,721996054721985,583894090622369,,,,2020-07-01T05:27:00.000000Z,2020-07-01T05:27:00.000000Z
320,1191165945054651,"Barbara Chambers Children's Center #2",580772169029651,,,38.9136368,-77.0221127,,"1182157958552306,670644496333952,814817282883148,813051911788426",1090445511708047,,,1258337392299415,,,,2020-07-01T05:27:00.000000Z,2020-07-01T05:27:00.000000Z
321,1201013486946841,"1509 16th Street NW Washington, DC 20036",0,,,38.9099927,-77.0360494,,1113022418855878,,,,664797781907050,,,,2020-07-01T05:27:00.000000Z,2020-07-01T05:27:00.000000Z
322,1199611952924070,"Downtown Cluster - AARP Self Help Office",0,,,,,"Downtown Cluster partners with AARP to provide the Self Help Office",,1262951146146675,,885227948751306,,,,,2020-07-01T05:27:00.000000Z,2020-07-01T05:27:00.000000Z
323,1201917781354008,"1201 New York Avenue NW Washington, DC 20005",647276391431213,,,38.9007958,-77.0285713,,629844217460402,1129890724470136,,,651786461883664,,,,2020-07-01T05:27:00.000000Z,2020-07-01T05:27:00.000000Z
324,1204227139966741,"Mom's Meals Corporate Office",778852197302716,,,41.6742052,-93.5575138,,,1217938662012922,,1072738284399785,837969692353422,,,,2020-07-01T05:27:00.000000Z,2020-07-01T05:27:00.000000Z
325,1147823510376197,"DC Action for Children",1138775501034023,,,38.899112,-77.0221334,,"838994053401205,1172561205584676,648224105090520,1239721554358448,1052496292978459",1139434629285592,,1098590993104545,792709813022086,,,,2020-07-01T05:27:00.000000Z,2020-07-01T05:27:00.000000Z
326,1154195373907801,"Central Union Emergency Shelter",726173106231202,,,38.8987292,-77.0111112,,"1291599466171764,978182683421582,759682631849783,754621632893339,902951823980164,945841786673442,1154397851156755,886267440482873,1252264089140599,1187463498588025,1228495289369706,908926837435227",842965887033119,,642319256352941,585594366267961,,,,2020-07-01T05:27:00.000000Z,2020-07-01T05:27:00.000000Z
327,1156618843458652,"1400 Florida Avenue NE Washington, DC 20002",0,,,38.9005607,-76.9842427,,,,,,1093503686011260,,,,2020-07-01T05:27:00.000000Z,2020-07-01T05:27:00.000000Z
328,1166838878012103,"2200 California Street NW Washington, DC 20008",1165920736845072,,,38.915645,-77.0490255,,977300457256642,975486847076351,,,953744672072596,,,,2020-07-01T05:27:00.000000Z,2020-07-01T05:27:00.000000Z
329,1179332074138565,"1012 14th Street, NW STE> 700 Washington DC 20006",1200954196071495,,,38.9032398,-77.0322033,,957022682260174,1124603488435393,,,1194993289280136,,,,2020-07-01T05:27:00.000000Z,2020-07-01T05:27:00.000000Z
330,1179174778771993,"Germantown Community Center",855094084464049,,,39.1651892,-77.2855246,,"657179015884472,1134764669826308",898009380902296,rec80f6Nb2nlha6Ff,600730005000820,594266389872303,,,,2020-07-01T05:27:00.000000Z,2020-07-01T05:27:00.000000Z
331,1183011241112934,"Seabury - Administrative Office",1180598613249590,,,38.9631309,-77.0094851,,"566502197729713,855116520932040,610489256524292,782799413098806,847598884926148,1186072430576309,1290396892728753",990653723421604,,1176087327224268,743160673924882,,,,2020-07-01T05:27:00.000000Z,2020-07-01T05:27:00.000000Z
332,1186823261288379,"UPO Administrative and Hotline",761153930697275,,,38.915064,-77.0164135,,"825451959778479,1282686227944763",665905423802380,reckbSLP0nDHuHuop,1237143296501911,1010090868515533,,,,2020-07-01T05:27:00.000000Z,2020-07-01T05:27:00.000000Z
333,1197279412047011,"Dupont Park SDA",782406976349276,,,38.871639,-76.947037,,"1145399925529779,1075486612088837",777587688446935,,,826890204604396,,,,2020-07-01T05:27:00.000000Z,2020-07-01T05:27:00.000000Z
334,1203649171352486,"4406 Georgia Avenue NW Washington, DC 20011",1182637329109100,,,38.9443286,-77.0265236,,832915449530060,1316821551671081,,,840736952825536,,,,2020-07-01T05:27:00.000000Z,2020-07-01T05:27:00.000000Z
335,1215517692128370,"New Endeavors by Women",909401719398962,,,38.9074616,-77.020665,,"1272430859437969,817086926506130",815707427459010,,,1071232777595227,,,,2020-07-01T05:27:00.000000Z,2020-07-01T05:27:00.000000Z
336,1220839720071176,"DC Department of Behavioral Health",777796010868947,,,38.9091966,-77.0064165,,"999007044535768,1270590689586287",1130087923383067,,,677760270951950,,,,2020-07-01T05:27:00.000000Z,2020-07-01T05:27:00.000000Z
337,1161706256775181,"Mayor's Office of LGBTQ Affairs",743525753773182,,,38.9175547,-77.0324732,,605774245554167,"918350012207483,804590542957247,688693608343237",,1118971527369692,882267988490168,,,,2020-07-01T05:27:00.000000Z,2020-07-01T05:27:00.000000Z
338,1162558264395905,"Food for Others Warehouse",891609880372190,,,38.871416,-77.23827,,813497895890135,1111158785593728,,993941911612725,902600774038071,,,,2020-07-01T05:27:00.000000Z,2020-07-01T05:27:00.000000Z
339,1182935368999640,"SHARE Food Network Main Office",1331447374298751,,,38.9288531,-76.8740779,,843621219939860,"765310724233865,1200120875116452",,841384557417096,783706569251103,,,,2020-07-01T05:27:00.000000Z,2020-07-01T05:27:00.000000Z
340,1195857100779606,"500 I Street NW Washington, DC 20001",769347676481702,,,38.9005808,-77.0192653,,1133092295870518,778368103757668,,,809466173644410,,,,2020-07-01T05:27:00.000000Z,2020-07-01T05:27:00.000000Z
341,1207006040801026,"Food for Others",891609880372190,,,38.871416,-77.23827,,,"1111158785593728,1126152989477652",,,902600774038071,,,,2020-07-01T05:27:00.000000Z,2020-07-01T05:27:00.000000Z
342,1213006663268025,"624 9th Street NW Washington, DC 20001",1230770757213322,,,38.898098,-77.024445,,,971675983180149,,,1189798324403663,,,,2020-07-01T05:27:00.000000Z,2020-07-01T05:27:00.000000Z
343,1228487137683267,"1525 7th Street, N.W.",0,,,,,,946272738558477,1312338385799572,,,,,,,2020-07-01T05:27:00.000000Z,2020-07-01T05:27:00.000000Z
344,1204175927893390,"Sherman Avenue Corps",0,,,38.9318393,-77.0256607,,940345726334678,,,,1124201869905369,,,,2020-07-01T05:27:00.000000Z,2020-07-01T05:27:00.000000Z
345,1206937936321537,"1800 M Street NW Washington, DC 20006",1130976795185960,,,38.9051408,-77.0423239,,943480498983752,1255198513514728,,,575667082633363,,,,2020-07-01T05:27:00.000000Z,2020-07-01T05:27:00.000000Z
346,1209121324412172,"Father McKenna Center",1187372282686349,,,38.9014721,-77.0092596,,"1224104445658687,612611049847328,1249294483746869,972989260139901,576988108950338",1123859846194392,,,645829762063748,,,,2020-07-01T05:27:00.000000Z,2020-07-01T05:27:00.000000Z
347,1242363315641650,"901 G Street NW Washington, DC 20001",1154572477664352,,,38.8986823,-77.024871,,,,,,1042280248130731,,,,2020-07-01T05:27:00.000000Z,2020-07-01T05:27:00.000000Z
348,1183432963433388,"Ayuda MD Office",795756022910298,,,38.9985997,-77.0300671,,"1120365239019390,1098998360726289,940105141272489",602586439838395,,1280853309594026,1136426278579096,,,,2020-07-01T05:27:00.000000Z,2020-07-01T05:27:00.000000Z
349,1185969381076176,"Quality Trust",744812603775568,,,38.9450022,-77.0634739,,"865253695035282,1210697117152571,1194701188927394,998912206496705,775356580769657,872625169605396,573931060003252",549594406351830,,655204523101840,1262646425320757,,,,2020-07-01T05:27:00.000000Z,2020-07-01T05:27:00.000000Z
350,1188102183681608,"801 Buchanan Street Washington, DC 20017",606159111308029,,,38.945785,-76.993702,,1124328528578512,1083606216852497,,,1295539867349281,,,,2020-07-01T05:27:00.000000Z,2020-07-01T05:27:00.000000Z
351,1199654488652628,"St Anthony of Padua Church (VA)",572890347249315,,,38.8571225,-77.1386468,,873611419029370,"1346383381421883,1138656191558408",,"1090682465701888,938693448950476",628567320148149,,,,2020-07-01T05:27:00.000000Z,2020-07-01T05:27:00.000000Z
352,1214132387827753,"2303 Martin Luther King Jr., Ave., SE Washington, DC 20020",0,,,,,,"802246956701009,1179854807435757,760885031702204,1314427687239600",,,,,,,,2020-07-01T05:27:00.000000Z,2020-07-01T05:27:00.000000Z
353,1229901678210145,"Arlington/Northern Virginia",1341330878033407,,,38.8641779,-77.0816962,,653858529595915,"907595396415056,809087167806044",,901698481561498,931556635311387,,,,2020-07-01T05:27:00.000000Z,2020-07-01T05:27:00.000000Z
354,1191018896637124,,0,,,,,,,,,,,,,,2020-07-01T05:27:00.000000Z,2020-07-01T05:27:00.000000Z
355,1191156779628062,"Contemporary Family Services - DC Pennsylvania AVe",1262229839027778,,,38.8686395,-76.9578338,,"989188268576682,797891805827498,985593774651159",686902171451083,,,1240535751990184,,,,2020-07-01T05:27:00.000000Z,2020-07-01T05:27:00.000000Z
356,1218038521689235,"50th Street Family Program",1085960322097234,,,38.8837532,-76.9307709,,1277276480508566,"1158808973498466,624477976772029",,,1094445543172331,,,,2020-07-01T05:27:00.000000Z,2020-07-01T05:27:00.000000Z
357,1220017101351760,"Miriam's Kitchen",1043249662316489,,,38.898614,-77.05167,,"636128659634571,1190183438277072,847425752356331,871817666202986,800290835408679,1012930231616826","1076876608568522,582664674810922",,"946903396553815,1208613104287382",850193305992354,,,,2020-07-01T05:27:00.000000Z,2020-07-01T05:27:00.000000Z
358,1223680649678241,"441 4th St, NW 20001 #1 Judiciary Square",874266502610128,,,,,,615914620488320,1266100703604119,,,,,,,2020-07-01T05:27:00.000000Z,2020-07-01T05:27:00.000000Z
359,1235846186580133,"Martha's Outfitters on MLK",1279230501938511,,,38.8646279,-76.9896651,,,1010948778594884,,1140428136957660,744037453647389,,,,2020-07-01T05:27:00.000000Z,2020-07-01T05:27:00.000000Z
360,1217655786602605,"4713 Wisconsin Avenue NW Washington, DC, 20016, US",0,,,,,,1214958471600009,,,,,,,,2020-07-01T05:27:00.000000Z,2020-07-01T05:27:00.000000Z
361,1220976687659768,"1313 New York Avenue, NW BSMT Suite 1 Washington, DC, 20005,",0,,,,,,1101603153311416,,,,,,,,2020-07-01T05:27:00.000000Z,2020-07-01T05:27:00.000000Z
362,1218813676681454,"Sasha Bruce - REACH",1306699628219808,,,38.8794592,-76.9955147,,908536708739321,766550059427065,,,816167940258946,,,,2020-07-01T05:27:00.000000Z,2020-07-01T05:27:00.000000Z
363,1234289739881760,"1701 14th Street NW Washington, DC 20009",996759849305541,,,38.9127993,-77.0315736,,1194108716776364,1130306195397865,,,651755018600599,,,,2020-07-01T05:27:00.000000Z,2020-07-01T05:27:00.000000Z
364,1266854743896634,"305 E Street, NW Washington, DC 20001",786390431879533,,,38.8963228,-77.0155925,,799762672906525,,,,967673170995278,,,,2020-07-01T05:27:00.000000Z,2020-07-01T05:27:00.000000Z
365,1205522007643431,"2307 Martin Luther King Jr Avenue SE Washington, DC 20020",864654455488543,,,38.8633444,-76.9915438,,1225675874740777,"891305332730659,1153100898791474",,,777262664227450,,,,2020-07-01T05:27:00.000000Z,2020-07-01T05:27:00.000000Z
366,1218278923208260,"Malcolm X Opportunity Center",0,,,38.8448695,-76.9871775,,859629175967195,,,,1245852672133548,,,,2020-07-01T05:27:00.000000Z,2020-07-01T05:27:00.000000Z
367,1232398464032126,"3020 14th Street NW Washington, DC, 20009, US",0,,,,,,"934420315468432,833155783547619,1133489323155206",,,,,,,,2020-07-01T05:27:00.000000Z,2020-07-01T05:27:00.000000Z
368,1238893972656148,"1234 Massachuettes Avenue NW Washington, DC 20005",890469114349217,,,,,,1135183488769656,1202903945491491,,,,,,,2020-07-01T05:27:00.000000Z,2020-07-01T05:27:00.000000Z
369,1240567562394258,"Pine Ridge Community Center",1140996665222837,,,38.9982431,-77.0001042,,617081192222015,"1184988992731200,644907115727601",,"1290053544853219,920128365723695,878447457899091",987608607195027,,,,2020-07-01T05:27:00.000000Z,2020-07-01T05:27:00.000000Z
370,1246140596600748,"Sacramento Neighborhood Center",919690199169575,,,38.7210454,-77.1265692,,"1273613208251491,786302163414865",676690284227155,,"1120594852165211,826011901306447,1232282827720859",890837741306671,,,,2020-07-01T05:27:00.000000Z,2020-07-01T05:27:00.000000Z
371,1261460579474983,"Mazique at Tyler",612828763371641,,,38.9063037,-77.0095301,,"1209187247938710,792954474348824",1200602057472122,,,913507292300030,,,,2020-07-01T05:27:00.000000Z,2020-07-01T05:27:00.000000Z
372,1262539583552576,"Friendship Heights Outpatient Center",1061724977026001,,,38.9555205,-77.0834385,,1176014704120176,"990620232794956,889533800044382",,692011508244789,1158748634298092,,,,2020-07-01T05:27:00.000000Z,2020-07-01T05:27:00.000000Z
373,1262159504249540,"Martha's Table at the Maycroft",1279230501938511,,,38.9269851,-77.0349922,,"1224237784751973,923438177610839,881381167741606,943841633351922",1235881686916009,,"1149548494065862,1305220417627664",873144110718631,,,,2020-07-01T05:27:00.000000Z,2020-07-01T05:27:00.000000Z
374,1271606099314004,"Sasha Bruce - Olaiya's Cradle",1306699628219808,,,,,,,,,,,,,,2020-07-01T05:27:00.000000Z,2020-07-01T05:27:00.000000Z
375,1220597047470925,"St. Steven Episcopal Church",801110030219864,,,38.9334824,-77.0357195,,"916268094765428,651504031814159,1166512271577678,963890389048330,1183218830562978,965489694318451,1229484402696374,1267195102722768,988930242117816,1207414557990697,1179313324156762",913062642189740,,,962322435473993,,,,2020-07-01T05:27:00.000000Z,2020-07-01T05:27:00.000000Z
376,1251056114217612,"Early Learning Center",919690199169575,,,38.7642237,-77.0800219,,1270127715145648,1114612056687370,,867742554981281,1054081986123306,,,,2020-07-01T05:27:00.000000Z,2020-07-01T05:27:00.000000Z
377,1266225890742478,"Nourish Now",999334342940796,,,39.0932336,-77.1357204,,1287178898963916,780586392014879,,,1241946310153308,,,,2020-07-01T05:27:00.000000Z,2020-07-01T05:27:00.000000Z
378,1273044419277442,"Baltimore Welcome Center",1140996665222837,,,39.2946204,-76.5855305,,,"1184988992731200,789425002305998,1195584083587905",,627392607680449,936699808992530,,,,2020-07-01T05:27:00.000000Z,2020-07-01T05:27:00.000000Z
379,1274640117388299,"441 4th Street NW Washington, DC 20001",559154929442125,,,38.8954713,-77.0156037,,899838401230788,813086141383291,,,616767096527901,,,,2020-07-01T05:27:00.000000Z,2020-07-01T05:27:00.000000Z
380,1283411988337750,"Rockville Welcome Center",1140996665222837,,,39.0981633,-77.1320616,,1090898575973829,"1184988992731200,1165189569084809,849783929453542",,871634714393410,807881417777661,,,,2020-07-01T05:27:00.000000Z,2020-07-01T05:27:00.000000Z
381,1226471318547160,"2041 Martin Luther King Jr., Avenue, SE Suites: 200, 206, 230, 300, 303, 311, LL3 Washington, DC  20020",1191261150235856,,,,,,,,,,,,,,2020-07-01T05:27:00.000000Z,2020-07-01T05:27:00.000000Z
382,1256916637146639,"Community School - M.V. Woods Elementary School",919690199169575,,,38.742567,-77.1004222,,,1165101578457972,,,967420038876230,,,,2020-07-01T05:27:00.000000Z,2020-07-01T05:27:00.000000Z
383,1261924735850333,"1876 4th Street NE Washington, DC 20002",1319047892616905,,,38.9150389,-77.0008916,,777108871381104,606210161081529,,,1320872330999559,,,,2020-07-01T05:27:00.000000Z,2020-07-01T05:27:00.000000Z
384,1258883277954568,"5101 16th Street NW, Washington DC, 20011",1178149503221687,,,,,,,,,,,,,,2020-07-01T05:27:00.000000Z,2020-07-01T05:27:00.000000Z
385,1282660521731521,"Virginia Williams Family Resource Center",1061460575455807,,,38.9230157,-76.9930174,,"1164661927797269,1106419147216738",1066322983572364,,"606181263945469,1047678134294030",592947414359807,,,,2020-07-01T05:27:00.000000Z,2020-07-01T05:27:00.000000Z
386,1282997809596504," DC Center for Independent Living – SE Satellite",964889233755760,,,38.8294674,-76.9910825,,"1172793580060024,569770427910971,1229131972445514,1311031611561841,1086482131081597,688871630742360,1166105214343141","857576973728938,810669867487614,1009972720361462",,1180459083504396,1313889595660179,,,,2020-07-01T05:27:00.000000Z,2020-07-01T05:27:00.000000Z
387,1287901333269561,"601 E Street NW Washington, DC 20004",1093127605400642,,,38.8964301,-77.0205524,,"928612911758060,1195448583131416,845999906983085,803655377623585,929396265497963,944036937200998,956658240049666,1292756176570822,662348348100050,762888373958688,1135875611263139,819327215791900","1154003895918016,793218371104365",,,763163886168100,,,,2020-07-01T05:27:00.000000Z,2020-07-01T05:27:00.000000Z
388,1295311939008541,"Damien Ministries",935708179993271,,,38.9304233,-76.9739148,,"926396312659010,906107564923489,1282973947484780,935467815186616",1174596952831378,,"1170974328064768,620540776659347",1010200482336643,,,,2020-07-01T05:27:00.000000Z,2020-07-01T05:27:00.000000Z
389,1290604886585097,"1660 Columbia Road NW Washington, DC, 20009, US",0,,,,,,1283472697302797,,,,,,,,2020-07-01T05:27:00.000000Z,2020-07-01T05:27:00.000000Z
390,1297547838260579,"Efforts from Ex-Convicts",1131980011333623,,,38.9079831,-77.0235439,,"888015364104840,1300980508291929,948442047347066",562269954846755,rec7gcqoBguS3aoNN,,949959980193647,,,,2020-07-01T05:27:00.000000Z,2020-07-01T05:27:00.000000Z
391,1299927078956313,"Manna Market",0,,,39.0577748,-76.9696618,,1098880366371154,,,"782763514132873,688366505677747,691575783329891,1291723002835070,833118659201120",875676966431621,,,,2020-07-01T05:27:00.000000Z,2020-07-01T05:27:00.000000Z
392,1248693085093473,"DC 20011",0,,,,,,,,,,,,,,2020-07-01T05:27:00.000000Z,2020-07-01T05:27:00.000000Z
393,1268338961312460,"4065 Minnesota Avenue NE Washington, DC 20019",887095601228098,,,38.8964832,-76.9473145,,977628518433061,1319579849820109,,,1092516027457456,,,,2020-07-01T05:27:00.000000Z,2020-07-01T05:27:00.000000Z
394,1274749149318878,"1434 Harvard Street NW Washington, DC 20009",0,,,38.9261688,-77.0336203,,,1096946727548641,,,1204621037814749,,,,2020-07-01T05:27:00.000000Z,2020-07-01T05:27:00.000000Z
395,1277910214924473,"425 2nd Street NW Washington, DC 20001",609227002779117,,,38.8954586,-77.0133543,,"1317451290347942,614149741156528",548821734063224,,,730657096706420,,,,2020-07-01T05:27:00.000000Z,2020-07-01T05:27:00.000000Z
396,1287087731647843,"500 Indiana Avenue NW Washington, DC 20001",1274689026716619,,,38.8941,-77.018393,,826245178186822,1200396831468955,,,1100623769973973,,,,2020-07-01T05:27:00.000000Z,2020-07-01T05:27:00.000000Z
397,1298013609220199,"1100 4th Street SW Washington, DC 20024",1213058378158421,,,38.8776018,-77.0173133,,725916932978557,1123129285610229,,,912991375068271,,,,2020-07-01T05:27:00.000000Z,2020-07-01T05:27:00.000000Z
398,1299466022640885,,1198455162499731,,,,,,,,,,,,,,2020-07-01T05:27:00.000000Z,2020-07-01T05:27:00.000000Z
399,1254506542357377,"Blair House",1085960322097234,,,38.9010406,-76.9970221,,665682144219766,"963370820777327,1130023184198081,1083795033337940",,,1250736471490258,,,,2020-07-01T05:27:00.000000Z,2020-07-01T05:27:00.000000Z
400,1266604236381612,"714 G Street, SE WDC 20003 (Adminstrative Office)",1260225511804442,,,38.8815002,-76.9953363,,1223670715224591,911026869446678,,,1012912288287179,,,,2020-07-01T05:27:01.000000Z,2020-07-01T05:27:01.000000Z
401,1270128697077218,"Community School - Walt Whitman Middle School",919690199169575,,,38.741506,-77.074185,,,640397518394513,,,937253884858569,,,,2020-07-01T05:27:01.000000Z,2020-07-01T05:27:01.000000Z
402,1284966614626832,Intake,1326157862705937,,,38.8955274,-76.9484399,,1105568722092716,"929037191615824,902963958186519",,1331183827495972,1307003077051177,,,,2020-07-01T05:27:01.000000Z,2020-07-01T05:27:01.000000Z
403,1286395778585315,"Southeast DC Office",908300362827413,,,38.872858,-76.971339,,"881403344964972,1162907800070547",639225425188186,,"1250551652902957,903053826297447",1157041158470005,,,,2020-07-01T05:27:01.000000Z,2020-07-01T05:27:01.000000Z
404,1295023062659721,"4301 9th Street SE Washington, DC 20032",0,,,38.8309819,-76.9895526,,748118421956392,1219550379088108,,,621335851884833,,,,2020-07-01T05:27:01.000000Z,2020-07-01T05:27:01.000000Z
405,1300302103708266,"50 Irving Street NW Washington, DC 20422",660031487204054,,,38.9286058,-77.0105649,,989716764680602,725097943892600,,,909536473882576,,,,2020-07-01T05:27:01.000000Z,2020-07-01T05:27:01.000000Z
406,1314518681278904,"New York Avenue Presbyterian Church",0,,,38.8999882,-77.0311238,,862476176486863,,,,659764004272890,,,,2020-07-01T05:27:01.000000Z,2020-07-01T05:27:01.000000Z
407,1318861728823017,"6856 Eastern Avenue NW Washington, DC 20012",906742630902911,,,38.9741106,-77.0137142,,,753558713598997,,,1074041792308054,,,,2020-07-01T05:27:01.000000Z,2020-07-01T05:27:01.000000Z
408,1318390042587758,"Woodbridge Welcome Center",1140996665222837,,,38.6725007,-77.2617529,,1090898575973829,"1184988992731200,914445625577149",,838436995923944,661561769394810,,,,2020-07-01T05:27:01.000000Z,2020-07-01T05:27:01.000000Z
409,1261619093567791,"Seabury - Model Cities Senior Wellness Center",1180598613249590,,,38.9240983,-76.9766825,,605724148465394,1117976446223168,,,708859571613221,,,,2020-07-01T05:27:01.000000Z,2020-07-01T05:27:01.000000Z
410,1264011549910449,"1627 K Street NW Washington, DC 20006",1141864402494387,,,38.9029117,-77.0376686,,"830080281630476,644620777168393,1137250454182986,822696272964380,1111524873166786,856596013009881,1348541466880314","1148564700806737,1010201225467528",,,1018319997039351,,,,2020-07-01T05:27:01.000000Z,2020-07-01T05:27:01.000000Z
411,1279341581208919,"3924 Minnesota Avenue NE Washington, DC, 20019, US",0,,,,,,804986111814033,,,,,,,,2020-07-01T05:27:01.000000Z,2020-07-01T05:27:01.000000Z
