id,organization_id,name,alternate_name,description,transportation,latitude,longitude
1,1222701888984669,"Sasha Bruce - Independent Living Program",,,,38.8901671,-76.9876558
2,1189940866829310,"SHARE Food Network Main Office",,,,38.9288531,-76.8740779
3,0,"1251-B Saratoga Ave NE Washington, DC, 20018, US",,,,,
4,965244460063048,"Byte Back",,,,38.9010559,-77.0085403
5,0,"Isaiah House",,,,,
6,1091742936273498,"Engine 15 Station",,,,,
7,758358330691109,"Contemporary Family Services - DC Georgia Ave",,,,38.9669177,-77.0270752
8,1151840654132771,"HSC Pediatric Center",,,,,
9,894973668784309,"1201 New York Avenue NW Washington, DC 20005",,,,38.9007958,-77.0285713
10,1189929745395085,"7603 Georgia Avenue Nw Washington, DC 20012",,,,38.9819508,-77.026198
11,1180009592526991,"1234 Massachuettes Avenue NW Washington, DC 20005",,,,,
12,1098153529407228,"2041 Georgia Avenue NW Washington, DC 20060",,,,38.9175305,-77.0204417
13,0,"DC Health and Wellness Center",,,,,
14,948639800544467,"Safe Shores",,,,38.908842,-77.0170412
15,0,"624 9th Street NW Washington, DC 20001",,,,38.898098,-77.024445
16,765268136875870,"Sherman Avenue Single Room Occupancy (SRO)",,,,38.9264462,-77.0261081
17,1001381268835594,"Ayuda MD Office",,,,38.9985997,-77.0300671
18,901970914472025,"YMCA Fairfax County Reston",,,,,
19,752311766026273,"MetroHealth Office",,,,38.9032398,-77.0322033
20,1280943812182660,"Camp Bennett Retreat and Conference Center",,,,39.193383,-77.064886
21,1005694830501113,"Wanda Alston House Main Office",,,,38.8945084,-77.0116897
22,976479787219157,"Open Arms Housing",,,,38.9087932,-77.0109698
23,832081175822927,"N Street Village Main Office",,,,38.9075729,-77.0314836
24,863547285733670,"SHABACH! Emergency Empowerment Center",,,,38.89487,-76.849975
25,1115449373062853,"1434 Harvard St NW Ste B",,,,,
26,1284952943863665,"Unity at Christ House (Ward 1)",,,,,
27,1213518469346648,"Barbara Chambers Children's Center #3",,,,38.9315658,-77.032923
28,0,"The Salvation Army Solomon G. Brown",,,,38.8629362,-76.9912175
29,626697805700987,"Food for Others Warehouse",,,,38.871416,-77.23827
30,1284952943863665,"Unity at New York Avenue Homeless Shelter (Ward 5)",,,,,
31,0,"425 2nd Street NW Washington, DC, 20001, US",,,,,
32,919694976245435,"Georgetown Ministry Center",,,,38.9035686,-77.0619983
33,1102284383103447,"DHS Economic Security Administration (ESA) Service Center - Anacostia",,,,,
34,1091742936273498,"Engine 1 Station",,,,,
35,0,"Salvation Army Center",,,,39.186734,-77.262561
36,0,"1434 Harvard Street NW Washington, DC 20009",,,,38.9261688,-77.0336203
37,1114290760690506,"St. Philip the Evangelist Episcopal Church",,,,38.8655385,-76.9858177
38,671975015184031,"441 4th Street NW Washington, DC 20001",,,,38.8954713,-77.0156037
39,865637769620382,"Sixth Presbyterian Church",,,,38.9558956,-77.0359182
40,868277751391055,"Casa Ruby",,,,38.981673,-77.026926
41,1151840654132771,"HSC Mobility Machine",,,,,
42,1031170884115304,"Nazarene Outpost Ministries",,,,38.9158405,-77.0127132
43,1102284383103447,"DHS Economic Security Administration (ESA) Service Centers - Taylor Street",,,,,
44,1102961709884725,"Virginia Williams Family Resource Center",,,,38.9230157,-76.9930174
45,1143076176825121,"Whitman-Walker at LIZ",,,,,
46,1091742936273498,"FEMS Main Office",,,,,
47,0,"DC Public Library: The Adult Literacy Resource Center",,,,38.9020363,-77.0445171
48,1091742936273498,"Engine 22 Station",,,,,
49,1126607081226356,"JSSA Rockville - Montrose",,,,39.0534464,-77.1240222
50,811471160167819,"Lorton Community Action Center",,,,38.6993953,-77.2140415
51,876886021673283,"Martha's Table Headquarters at the Commons",,,,38.8548975,-76.9844872
52,824101881058300,"Perennial House",,,,38.8980819,-76.9375237
53,1275858156254689,"Seabury - Home First Residences & Age-In-Place",,,,38.92263,-76.978202
54,808240584407061,"Community School - M.V. Woods Elementary School",,,,38.742567,-77.1004222
55,997370365137611,"500 Indiana Avenue NW Washington, DC 20001",,,,38.8941,-77.018393
56,0,"Silver Spring United Methodist Church- Four Corners Campus",,,,39.0197045,-77.0125189
57,765268136875870,"Emery Work Bed Program",,,,38.9136032,-77.0073706
58,1091742936273498,"Engine 28 Station",,,,,
59,1187309405282204,"Mazique at DFC",,,,38.900787,-76.9780775
60,984055402205420,"SERVE Campus",,,,38.7448018,-77.499861
61,0,"1620 North Capitol Street NW Washington, DC 20002",,,,38.911733,-77.009411
62,592376182631330,"Rebuilding Together DC Alexandria",,,,38.8082432,-77.0465631
63,1001381268835594,"Ayuda North DC Office",,,,38.9736702,-77.0140741
64,930037496704241,"Central American Resource Center",,,,38.9271876,-77.0344749
65,0,"3240 Stanton Road SE Washington, DC, 20020, US",,,,,
66,595267359680824,"Ambassador Baptist Church",,,,38.8669965,-76.9841527
67,635265662066015,"Perry School Community Services Center",,,,38.9053115,-77.0127649
68,0,"1342 Florida Ave., NW Washington, DC 20009",,,,,
69,1288114944946075,"Deanwood Library",,,,,
70,0,"555 L Street SE Washington, DC, 20003, US",,,,,
71,876886021673283,"Shrine of the Sacred Heart",,,,38.9311199,-77.0358506
72,1091742936273498,"Engine 3 Station",,,,,
73,586301457835998,"City of Praise Family Ministries",,,,38.9078285,-76.8557
74,0,"1701 14th Street NW Washington, DC 20009",,,,38.9127993,-77.0315736
75,808240584407061,"Creekside Village Community Center",,,,38.743995,-77.0931279
76,1315578558618439,"Youth Prevention Center: Wards 5 & 6",,,,38.8970231,-76.991825
77,1347505314266969,"DHCF Main Office",,,,,
78,937130544214038,"Edgewood Terrace Family Support Program",,,,38.9230682,-76.9981019
79,858928431109507,"4406 Georgia Avenue NW Washington, DC 20011",,,,38.9443286,-77.0265236
80,1151840654132771,"HSC Outpatient Centers - Washington, DC Location ",,,,,
81,9.5181943253847E+32,"2300 Martin Luther King Jr Avenue SE Washington, DC 20020",,,,38.8629362,-76.9912175
82,1091742936273498,"Engine 11 Station",,,,,
83,0,"3020 14th Street NW Washington, DC, 20009, US",,,,,
84,698337947812895,"DC Department of Energy and Environment Office",,,,,
85,1189940866829310,"1001 Lawrence Street NE Washington, DC 20017",,,,38.9313023,-76.9921625
86,1275858156254689,"Seabury - Newton St",,,,38.9343383,-76.9665114
87,1235669446637932,"UPO Comprehensive Treatment Center",,,,38.8855512,-76.9739373
88,1284952943863665,"Columbia Road Health Services (Ward 1)",,,,,
89,859831189737185,AimHire,,,,38.9563407,-77.0838769
90,1227863720998927,"St Anthony of Padua Church (VA)",,,,38.8571225,-77.1386468
91,1235669446637932,"UPO Anacostia Community Service Center",,,,38.865727,-76.9807327
92,1288114944946075,"Takoma Park Library",,,,,
93,1284952943863665,"Unity at Harbor Light (Ward 5)",,,,,
94,1284952943863665,"Unity at Central Mission - Gales School (Ward 2)",,,,,
95,0,"540 55th Street, NE Room W 101 Washington, DC, 20019, US",,,,,
96,0,"SOME Senior Center",,,,,
97,1084290800451609,"DCHFA Office",,,,,
98,889057390402463,"YWCA North Capital Area",,,,38.920781,-77.0314981
99,0,"4414 Benning Road NE Washington, DC, 20019, US",,,,,
100,0,"1509 16th Street NW Washington, DC 20036",,,,38.9099927,-77.0360494
101,884317159187782,"McClendon Center - Core Services Agency",,,,38.9084211,-77.0093647
102,1222701888984669,"Sasha Bruce House",,,,38.8970231,-76.991825
103,901970914472025,"YMCA Alexandria",,,,,
104,687390186581235,"Everyone Home DC Headquarters",,,,38.895629,-77.0032764
105,901970914472025,"YMCA Main Office",,,,,
106,1160781889033598,"1825 K Street NW Washington, DC 20006",,,,38.9029138,-77.0425038
107,937130544214038,"Main Headquarters and Family Support Program",,,,38.9239294,-76.997202
108,893442799835060,"Northwest DC Office",,,,38.9246103,-77.0407159
109,1277625881451110,"Washington, DC Campus",,,,38.8568383,-76.9702919
110,1284952943863665,"Upper Cardozo Health Center (Ward 1)",,,,,
111,1284952943863665,"Minnesota Avenue Health Center (Ward 7)",,,,,
112,884317159187782,"McClendon Center Day Program and Administrative Offices",,,,38.8999882,-77.0311238
113,885700392354422,"220 I Street NE Washington, DC 20002",,,,38.9015096,-77.0026014
114,1288114944946075,"Petworth Library",,,,,
115,540732570709574,"Southeast Site (Ward 8)",,,,38.8427636,-76.9999917
116,1102284383103447,"DHS Economic Security Administration (ESA) Service Centers - H Street",,,,,
117,1184125055440866,"Habitat for Humanity DC",,,,38.9067455,-77.0474734
118,0,"The Kennedy STFH",,,,,
119,917755116346392,"NLSP Far Northeast Office",,,,38.9091993,-76.9359706
120,0,"1313 New York Avenue, NW BSMT Suite 1 Washington, DC, 20005,",,,,,
121,558598955804152,"Misler Adult Day Center",,,,39.0562259,-77.1270337
122,1277625881451110,"Upper Marlboro Campus",,,,38.8188109,-76.756107
123,816837809289342,"5101 16th Street NW, Washington DC, 20011",,,,,
124,1091742936273498,"Engine 25 Station",,,,,
125,1281888937730435,"1400 Decatur Street NW Washington, DC 20011",,,,38.9480824,-77.0330355
126,1091742936273498,"Engine 20 Station",,,,,
127,900390741392973,"200 I Street Southeast Washington, DC 20003",,,,38.879923,-77.0030063
128,0,"Colesville Presbyterian Church",,,,39.0634603,-77.0031056
129,937130544214038,"Browne Educational Campus Family Support Program",,,,38.9031828,-76.970877
130,1153150741927521,PIDARC,,,,38.8972128,-77.0469182
131,0,"1200 Clifton Street NW Washington, DC, 20009, US",,,,,
132,1288114944946075,"Cleveland Park Library",,,,,
133,0,"1201 S Capitol Street SW Washington, DC 20003",,,,38.8758715,-77.0094401
134,605309967915458,"1421 37th Street NW Washington, DC 20057",,,,38.9083677,-77.0714087
135,1284952943863665,"Unity at 801 East Building Shelter (Ward 8)",,,,,
136,0,"Atlantic Homes",,,,38.8277704,-77.0027121
137,864865232678877,"Early Stages",,,,38.9041874,-77.0138942
138,619974574898067,PABC,,,,38.8712006,-76.963811
139,968246809109996,"Northwest Center",,,,38.924407,-77.0405135
140,1203024767725850,"Marie Reed Health Center",,,,38.9192027,-77.0403449
141,818433220295218,"Pine Ridge Community Center",,,,38.9982431,-77.0001042
142,1222701888984669,"Sasha Bruce - Olaiya's Cradle",,,,,
143,1345471385548761,"DHCD Main Office",,,,,
144,901970914472025,"YMCA Arlington Woodmont Gymnastics Center",,,,,
145,1126607081226356,"JSSA Rockville - Fallsgrove",,,,39.1016604,-77.1887297
146,0,"Adams Place Day Center",,,,,
147,0,"Montgomery County Medical Clinic",,,,,
148,0,"Clifton Park Baptist Church",,,,39.0003356,-76.9940973
149,1315578558618439,"Youth Prevention Center: Wards 7 & 8",,,,38.8945549,-76.9478942
150,0,"J.C. Nalle Elementary School",,,,,
151,1091742936273498,"Engine 17 Station",,,,,
152,593542128006992,"2200 California Street NW Washington, DC 20008",,,,38.915645,-77.0490255
153,650479626662564,"NCCF Greentree Center",,,,,
154,0,"DC Office - Family and Medical Counseling Services, Inc.",,,,38.8659856,-76.9897776
155,0,"3020 14th Street NW Washington, DC 20009",,,,38.9281612,-77.032968
156,0,"645 H Street, NE, WDC 20002",,,,38.899988,-76.9964478
157,1288114944946075,"Woodridge Library",,,,,
158,1265547770857863,"Father McKenna Center",,,,38.9014721,-77.0092596
159,863547285733670,"Shabach Ministries",,,,38.9355627,-76.8587826
160,1222701888984669,"Sasha Bruce - Promise Place",,,,38.8851122,-76.9158068
161,1222701888984669,"Sasha Bruce - Transitional Housing Program",,,,38.8282306,-76.9959647
162,1121342754860910,"Children’s National Emergency Department at United Medical Center",,,,38.8359393,-76.9849936
163,1121342754860910,"Upper Marlboro Outpatient Center",,,,38.8172799,-76.8419598
164,1102284383103447,"DHS Economic Security Administration (ESA) Service Centers - Fort Davis",,,,,
165,876886021673283,"McKenna's Wagon 15th and K Streets, NW",,,,38.9024168,-77.0345695
166,1222701888984669,"Barracks Row Drop In Center",,,,38.8798611,-76.9951445
167,1296086003080295,"Nourish Now",,,,39.0932336,-77.1357204
168,1151840654132771,"HSC Health Services for Children with Special Needs, Inc.",,,,,
169,917755116346392,"NLSP Headquarters",,,,38.9091966,-77.0064165
170,1048888394985463,"Riverside Healthy Living Center",,,,38.897302,-76.925709
171,758358330691109,"Contemporary Family Services - DC Pennsylvania AVe",,,,38.8686395,-76.9578338
172,585623863455965,"National Baptist Memorial Church",,,,38.9271214,-77.0360257
173,1206510419155059,"Bread for the City Northwest Center",,,,38.9103106,-77.021587
174,960893870849573,"Nineteenth Street Baptist Church",,,,38.9467007,-77.0369714
175,667513392468817,Yachad,,,,38.9977415,-77.0304159
176,949759665008692,"Wendt Connecticut",,,,38.9434867,-77.0626075
177,1119343755243480,"Manna Food Center Main Office",,,,39.0577748,-76.9696618
178,1203024767725850,"Rapid Rehousing and Employment Teams",,,,38.8438596,-76.9992043
179,790090664353865,"Legal Aid Society of DC - The “Big Chair”",,,,38.8659856,-76.9897776
180,1203024767725850,"The Triumph                                                 Short-Term Family Housing",,,,38.8280384,-76.9985976
181,1091742936273498,"Engine 27 Station",,,,,
182,940973163563518,"Anacostia/Southeast DC",,,,38.8658071,-76.9858852
183,0,"Gaithersburg Middle School",,,,39.1440046,-77.1877863
184,0,"DC Action for Children",,,,38.899112,-77.0221334
185,1288114944946075,"West End Library",,,,,
186,619974574898067,Headquarters,,,,38.9007004,-76.9429256
187,1091742936273498,"Engine 26 Station",,,,,
188,1102284383103447,"DHS Economic Security Administration (ESA) Service Centers - Congress Heights",,,,,
189,0,"SOME Clinic",,,,38.9082416,-77.0110598
190,1126515358200105,"WLCH Main Office",,,,38.9167416,-77.0283685
191,1278194418924146,"1800 M Street NW Washington, DC 20006",,,,38.9051408,-77.0423239
192,1315578558618439,"Youth Prevention Center: Wards 3 & 4",,,,38.9603613,-77.0846863
193,901970914472025,"YMCA Arlington Tennis & Squash Center",,,,,
194,1048888394985463,"North Columbia Heights Green",,,,38.9312805,-77.0278062
195,796592710173553,"305 E Street NW Washington, DC 20001",,,,38.8963228,-77.0155925
196,0,"Location based on service ",,,,,
197,0,"1355 New York Avenue NE Washington, DC, 20002, US",,,,,
198,921466109394130,"1150 Varnum Street NE Washington, DC 20017",,,,38.9437638,-76.9915731
199,0,"810 5th Street NW Washington, DC, 20001, US",,,,,
200,901970914472025,"YMCA Arlington",,,,,
201,1078800059400169,"500 K Street NE Washington, DC 20002",,,,38.9028335,-76.999142
202,917755116346392,"NLSP Southeast Office",,,,38.8732232,-76.9719346
203,1091742936273498,"Engine 29 Station",,,,,
204,1203024767725850,"Girard St Apartments",,,,38.9256492,-77.033103
205,879684021850075,"Vida Adams Morgan",,,,38.9230553,-77.0444604
206,623807648086762,"Courtney's House - PO Box",,,,38.9052763,-76.9815877
207,1091742936273498,"Engine 12 Station",,,,,
208,786496092449135,"714 G Street, SE WDC 20003 (Adminstrative Office)",,,,38.8815002,-76.9953363
209,1048888394985463,"Marvin Gaye Greening Center",,,,38.8993118,-76.9282047
210,0,"DC Healthy Families and DC HealthCare Alliance",,,,,
211,992550837539148,"Anacostia Big Chair (Office)",,,,38.8659856,-76.9897776
212,0,"FEMS CPR Class Location",,,,,
213,1160038998115387,"Valenti House",,,,,
214,1091742936273498,"Engine 33 Station",,,,,
215,1203024767725850,"Hope Apartments",,,,38.8373474,-77.0030738
216,1284952943863665,"Unity at Federal City (CCNV)",,,,,
217,966440815617344,"Paramount Baptist Church",,,,38.8321096,-77.0002617
218,1235669446637932,"UPO Administrative and Hotline",,,,38.915064,-77.0164135
219,1048888394985463,"Josephine Butler Parks Center",,,,38.9224819,-77.0349022
220,1203024767725850,"Family Health and Birth Center",,,,38.900787,-76.9780775
221,1193385899950220,"First Baptist Church of Deanwood",,,,38.9031079,-76.9379738
222,970698645664636,"1100 4th Street SW Washington, DC 20024",,,,38.8776018,-77.0173133
223,1206510419155059,"Bread for the City Southeast Center",,,,38.8662494,-76.9810927
224,0,"2 18th Street SE Washington, DC 20003",,,,38.8895084,-76.978759
225,909886281557711,"4900 Puerto Rico Avenue, NE Washington, DC 20017",,,,,
226,1198399473786797,"1667 Good Hope Road SE Washington, DC 20020",,,,38.8655348,-76.9797426
227,876886021673283,"2114 14th Street NW Washington, DC 20009",,,,38.9185075,-77.0323833
228,1077524447531259,"MD Office - Family and Medical Counseling Services, Inc.",,,,,
229,765268136875870,"50th Street Family Program",,,,38.8837532,-76.9307709
230,1275681929536705,"First Rising Mt. Zion Baptist Church",,,,38.9070032,-77.0203979
231,1121342754860910,"Main Hospital",,,,38.9271267,-77.014524
232,901970914472025,"YMCA Ayrlawn Program Center",,,,,
233,0,"1876 4th Street NE Washington, DC 20002",,,,38.9150389,-77.0008916
234,1091742936273498,"Engine 19 Station",,,,,
235,808240584407061,"Early Learning Center",,,,38.7642237,-77.0800219
236,1.0588928349923E+33,"Greater Washington Urban League",,,,38.9269718,-77.0320234
237,0,"19 Eye Street NW Washington, DC 20001",,,,,
238,0,"4713 Wisconsin Avenue NW Washington, DC, 20016, US",,,,,
239,0,"Gorlitz Kensington Club at Parklawn",,,,39.0588554,-77.111526
240,1293547606068658,"1310 Southern Ave SE, Suite G082, Washington, DC 20032",,,,,
241,1311337308136967,"LAYC - DC Safe Drop-in Center",,,,38.9282971,-77.0357794
242,1284952943863665,"Brentwood Health Center (Ward 5) ",,,,,
243,937130544214038,"Jefferson Academy  Family Support Program",,,,38.879881,-77.0229366
244,1351080129222819,"1204 Third Street, NW Washington, D.C. 20001",,,,38.9061005,-77.0155587
245,901970914472025,"YMCA Silver Spring",,,,,
246,1288114944946075,"Parklands-Turner Library",,,,,
247,1187309405282204,"Mazique at Tyler",,,,38.9063037,-77.0095301
248,1117145062751748,"Mom's Meals Corporate Office",,,,41.6742052,-93.5575138
249,902975658133732,"Administrative Office - Chancellor Williams Learning Center",,,,38.9169963,-77.0002842
250,1288114944946075,"Anacostia Library",,,,,
251,901970914472025,"YMCA Calomiris Program Center",,,,,
252,1284952943863665,"Cardozo High School Clinic",,,,,
253,1284952943863665,"Unity at N Street Village (Ward 1)",,,,,
254,1288114944946075,"Southwest Library",,,,,
255,0,"Max Robinson Center Pharmacy",,,,,
256,1280943812182660,"Family Ministry Center",,"The Family Ministry Center (FMC) provides food, clothing, toiletries and household items to local families in need",,38.9305803,-76.9591751
257,1108475181801971,"Advocates for Justice and Education - G Street",,,,38.8980247,-77.0285152
258,643509042901798,"Pathways to Housing",,,,38.9249975,-76.9938723
259,937130544214038,"Ionia R. Whipper Home Program Facility",,,,38.9226203,-76.9758499
260,901970914472025,"YMCA Loudoun County Program Center",,,,,
261,589460886355658,"Family Matters of Greater Washington",,,,38.901643,-77.0169534
262,1108475181801971,"Advocates for Justice and Education - Georgia Ave",,,,38.9392032,-77.0255908
263,901970914472025,"YMCA Loudoun County Youth Development Center",,,,,
264,862024217673800,"Calvary Women's Services",,,,38.8670496,-76.9880002
265,976419995372799,"1133 North Capitol Street NE Washington, DC 20001",,,,38.9330903,-76.9931954
266,1284952943863665,"East of the River Health Center (Ward 7)",,,,,
267,1091742936273498,"Engine 14 Station",,,,,
268,785453766981777,"Psychiatric Institute of Washington",,,,38.9439293,-77.0779866
269,1222701888984669,"2804 South East Maryland Avenue Washington, DC 20032",,,,,
270,879684021850075,"Vida Brightwood",,,,38.9614631,-77.0315061
271,0,"1525 14th St NW Washington, DC 20005",,,,,
272,818433220295218,"Woodbridge Welcome Center",,,,38.6725007,-77.2617529
273,0,"Northwood High School",,,,39.03571,-77.022065
274,1155113646791146,"Doctors Community Hospital",,,,38.9808223,-76.8651595
275,997628202730998,"My Sister's Place Administrative Office",,,,38.9167234,-77.0336428
276,0,"4301 9th Street SE Washington, DC 20032",,,,38.8309819,-76.9895526
277,0,"Sherman Avenue Corps",,,,38.9318393,-77.0256607
278,1284952943863665,"H.D. Woodson High School Clinic",,,,,
279,1253396496217869,"Covenant Baptist Church DC",,,,38.8341778,-77.0086303
280,0,"Glenmont United Methodist Church",,,,39.0674965,-77.0593696
281,1091742936273498,"Engine 16 Station",,,,,
282,1077524447531259,"2041 Martin Luther King Jr., Avenue, SE Suites: 200, 206, 230, 300, 303, 311, LL3 Washington, DC  20020",,,,,
283,1287549685614240,"Mary's Center Fort Totten, DC",,,,38.9529194,-77.0074605
284,1121342754860910,"Neurology at Montgomery County Outpatient Center",,,,39.1004309,-77.2104258
285,1151840654132771,"HSC Outpatient Centers - Montgomery County Location",,,,,
286,1091742936273498,"Engine 5 Station",,,,,
287,779339057787762,"Piney Branch Elementary School",,,,38.9822809,-77.0093952
288,0,"1300 First Street, NE, 2nd Floor Washington, DC 20002",,,,38.9075083,-77.0063357
289,0,"170114th Street NW Washington, DC 20009",,,,,
290,1169767322641878,"HCS Ward 7 Housing Empowerment Center",,"Operating out of the Antioch Baptist Church.",,38.9049824,-76.9282583
291,1288114944946075,"Francis A. Gregory Library",,,,,
292,1263332778268621,"50 Irving Street NW Washington, DC 20422",,,,38.9286058,-77.0105649
293,876886021673283,"Martha's Table at the Maycroft",,,,38.9269851,-77.0349922
294,1287549685614240,"Mary's Center Pharmacy",,,,38.9392032,-77.0255908
295,901970914472025,"YMCA Anthony Bowen",,,,,
296,1091742936273498,"Engine 18 Station",,,,,
297,1151840654132771,"HSC Outpatient Centers - Prince George's County Location",,,,,
298,846586624529740,"Women's Collective",,,,38.9177239,-76.9767439
299,1284952943863665,"Unity at Downtown BID (Ward 2)",,,,,
300,1288114944946075,"Bellevue Library",,,,,
301,1214030857673383,"901 G Street NW Washington, DC 20001",,,,38.8986823,-77.024871
302,0,"1500 Galen Street SE Washington, DC, 20020, US",,,,,
303,638023829270297,"A.P. Shaw Campus",,,,38.8515498,-76.9853227
304,1288114944946075,"Martin Luther King Jr. Memorial Library (Central Library)",,,,,
305,1121342754860910,"Friendship Heights Outpatient Center",,,,38.9555205,-77.0834385
306,0,"Manna Market",,,,39.0577748,-76.9696618
307,1284952943863665,"Stanton Road Health Center (Ward 8)",,,,,
308,757749510901012,"Damien Ministries",,,,38.9304233,-76.9739148
309,1275858156254689,"Seabury at Springvale Terrace",,,,38.9986427,-77.0212272
310,1077851308935499,"1627 K Street NW Washington, DC 20006",,,,38.9029117,-77.0376686
311,0,"Downtown Cluster - AARP Self Help Office",,"Downtown Cluster partners with AARP to provide the Self Help Office",,,
312,809725005994328,"Dupont Park SDA",,,,38.871639,-76.947037
313,765268136875870,"Mickey Leland House",,,,38.914732,-77.0177099
314,1058892834992313," DC Center for Independent Living – SE Satellite",,,,38.8294674,-76.9910825
315,1265909136483839,"3917 Minnesota Avenue, NE Washington, DC 20019",,,,38.8937514,-76.9495877
316,1091742936273498,"Engine 6 Station",,,,,
317,1222701888984669,"Sasha Bruce - Transitional Living Program",,,,38.8839641,-76.9296229
318,1288114944946075,"Chevy Chase Library",,,,,
319,1172656271433522,"DC Spanish Catholic Center",,,,38.9327313,-77.0373987
320,818433220295218,"Silver Spring Welcome Center",,,,38.9975705,-76.9930849
321,1309623395147627,"300 Indiana Avenue Washington, DC 20001",,,,38.8943419,-77.0165645
322,1087443224313487,"2307 Martin Luther King Jr Avenue SE Washington, DC 20020",,,,38.8633444,-76.9915438
323,802638496440415,"Elaine Ellis MD",,,,39.0178048,-76.9197707
324,1115745782915962,"Sibley Memorial Hospital",,,,38.9365476,-77.1091966
325,1288114944946075,"Shaw (Watha T. Daniel) Library",,,,,
326,818433220295218,"Multicultural Center (MCC)",,,,38.990764,-76.981483
327,901970914472025,"YMCA Camp Letts",,,,,
328,765268136875870,"The Webster House",,,,38.9438264,-77.0329905
329,1158824400866164,"910 Westminster Street NW Washington, DC 20009",,,,38.9146534,-77.0244324
330,961854161533682,"MedStar Washington Hospital Center",,,,,
331,1303478330484169,"DC Central Kitchen Headquarters",,,,38.8954586,-77.0133543
332,1234827091202817,"Westminster Presbyterian Church",,,,38.8789526,-77.018258
333,0,"1717 Columbia Road NW Washington, DC, 20009, US",,,,,
334,1148831835061989,"Hillcrest - MLK Jr. Ave",,,,38.844288,-76.9985519
335,9.6773741020642E+32,"St. Stephen and the Incarnation",,,,38.9334824,-77.0357195
336,820630706542898,"4125 Albemarle Street NW Washington, DC 20016",,,,38.9481931,-77.0816737
337,901970914472025,"YMCA Youth & Family Services",,,,,
338,744035004462843,"Efforts from Ex-Convicts",,,,38.9079831,-77.0235439
339,0,"SAMARITAN MINISTRY OF GREATER WASHINGTON: NW OFFICE",,,,,
340,1061004820715700,"Mc Kendree UMC",,,,38.9319612,-76.971732
341,618821526959273,"Hughes Memorial UMC",,,,38.8905358,-76.9254723
342,1203024767725850,"The Commons at Stanton Square",,,,38.8548975,-76.9844872
343,951819432538468,"Community Connections - The Center for Families and Children",,,,38.8938413,-77.0203724
344,1012774856380370,"Far Southeast Family Strengthening Collaborative - Administrative Office",,,,38.8659856,-76.9897776
345,1126607081226356,"JSSA Silver Spring",,,,39.0183093,-77.0446628
346,1078800059400169,"Department of Aging and Community Living",,,,,
347,803246513313364,"801 Buchanan Street Washington, DC 20017",,,,38.945785,-76.993702
348,540732570709574,"Northeast Site (Ward 5/Main site)",,,,38.9208058,-76.9777175
349,1172656271433522,"MD Spanish Catholic Center",,,,,
350,1288114944946075,"Library Express",,,,,
351,1209774179868983,"Children's Law Center",,,,38.8965812,-77.0147134
352,1126607081226356,"JSSA Northern Virginia",,,,38.8672169,-77.2364739
353,1288114944946075,"Mt. Pleasant Library",,,,,
354,758358330691109,"Contemporary Family Services - DC Minnesota AVe",,,,38.8763069,-76.965516
355,1140779289251086,"Crowder Food Bank",,,,38.9198591,-76.9981019
356,1203024767725850,"Mississippi Avenue and Archer Park Apartments",,,,38.8403609,-76.9871985
357,1121342754860910,"Neuropsychology at Montgomery County Outpatient Center",,,,39.1079986,-77.1877863
358,901970914472025,"YMCA Prince George’s County",,,,,
359,1297467042568288,"The United Church",,,,38.898035,-77.044573
360,758358330691109,"Contemporary Family Services - MD",,,,38.9694937,-76.952895
361,1222701888984669,"Sasha Bruce - PASSAGES",,,,38.8514669,-76.9648686
362,1315578558618439,"Youth Prevention Center: Wards 1 & 2",,,,38.9277554,-77.0332829
363,0,"DC 20011",,,,,
364,765268136875870,"La Casa Transitional Rehabilitation Program (TRP)",,,,38.9363756,-77.0291455
365,940973163563518,"Arlington/Northern Virginia",,,,38.8641779,-77.0816962
366,815771475001330,"924 G Street NW Washington, DC 20001",,,,38.8979969,-77.025103
367,921180108977126,"2601 18th Street NE Washington, DC 20018",,,,38.9237346,-76.9780775
368,1235614981567924,"La Casa Transitional Housing",,,,38.9363756,-77.0291455
369,1288114944946075,"Capitol View Library",,,,,
370,1288114944946075,"Northwest One Library",,,,,
371,802638496440415,"Elaine Ellis DC",,,,38.9116973,-76.9339447
372,973627436997143,"Mayor's Office of LGBTQ Affairs",,,,38.9175547,-77.0324732
373,918523571271755,"SOME Main Office",,,,38.9088439,-77.0114197
374,0,"P.O. Box 34125, WDC 20043",,,,,
375,1287549685614240,"Mary's Center Headquarters, Adams Morgan, DC",,,,38.9210225,-77.0397601
376,765268136875870,"Blair House",,,,38.9010406,-76.9970221
377,765268136875870,"Coalition for the Homeless Headquarters",,,,38.9041649,-77.0293694
378,1091742936273498,"Engine 13 Station",,,,,
379,650527153533264,"United Medical Center",,,,38.8359393,-76.9849936
380,615135989448834,"D.C. Department of Employment Services (DOES)",,,,38.8970435,-76.9478322
381,1288114944946075,"Northeast Library",,,,,
382,0,"4065 Minnesota Avenue NE Washington, DC 20019",,,,38.8964832,-76.9473145
383,890960937452506,"MedStar Georgetown University Hospital",,,,,
384,1222701888984669,"Sasha Bruce - PHP",,,,38.8638486,-76.9797426
385,779339057787762,"Adventist Community Services of Greater Washington",,,,38.9917266,-77.0117802
386,1084960450614161,"Douglas Knoll Clinic",,,,,
387,880448544501253,"LCDP 15th St",,,,38.9258922,-77.0352621
388,1288114944946075,"Palisades Library",,,,,
389,644590666868771,"1628 16th Street NW Washington, DC 20009",,,,38.9121255,-77.0370901
390,1046365080869798,"New Endeavors by Women",,,,38.9074616,-77.020665
391,1280943812182660,"Central Union Emergency Shelter",,,,38.8987292,-77.0111112
392,0,"1156 15th St NW, Suite 500, 20005",,,,38.9053932,-77.0350156
393,1284952943863665,"Unity at Friendship Place (Ward 3)",,,,,
394,1280943812182660,"Administrative Office",,,,38.9705143,-76.9139774
395,1091742936273498,"Engine 30 Station",,,,,
396,0,"301 365-4480",,,,,
397,1091742936273498,"Engine 23 Station",,,,,
398,765268136875870,"Park Road Transitional Program",,,,38.9307935,-77.0305165
399,618748399513081,"A Wider Circle Center for Community Service",,,,39.005589,-77.0487557
400,1315578558618439,"DC General Hospital Compound",,,,38.8828164,-76.9772039
401,940973163563518,"Skyland Workforce Center/Southeast DC",,,,38.86047,-76.9690317
402,619974574898067,"Taylor Street",,,,38.9410507,-77.02775
403,0,"Patrica Handy Place for Women",,,,,
404,1121342754860910,"Northern Virginia Outpatient Center",,,,38.8684229,-77.2357554
405,1288114944946075,"Tenley-Friendship Library",,,,,
406,1001381268835594,"Ayuda Administrative Office",,,,38.9029168,-77.0327206
407,1091742936273498,"Engine 7 Station",,,,,
408,1142792103155243,"Marshall Heights Community Development Organization",,,,38.8938648,-76.9471832
409,1143076176825121,"Whitman-Walker Youth Services",,,,,
410,0,"Zoe's Doors",,,,,
411,1058892834992313,"DC Center for Independent Living - Main Office",,,,38.9236657,-76.990551
412,1001381268835594,"Ayuda VA Office",,,,38.8799516,-77.2353961
413,0,"765 Kenilworth Terrace NE Washington, DC, 20019, US",,,,,
414,734905843461372,HIPS,,,,38.9004055,-76.9933526
415,1091742936273498,"Engine 21 Station",,,,,
416,1213518469346648,"Barbara Chambers Children's Center #2",,,,38.9136368,-77.0221127
417,0,"1333 N Street NW Washington, DC, 20005, US",,,,,
418,1284952943863665,"Southwest Health Center (Ward 6)",,,,,
419,0,"1400 Florida Avenue NE Washington, DC 20002",,,,38.9005607,-76.9842427
420,0,"651 Pennsylvania Ave., SE Washington, DC 20003",,,,,
421,811471160167819,"Lorton's Attic, Thrift Store",,,,38.700939,-77.2116161
422,765268136875870,"Anacostia Road Apartments",,,,38.8747834,-76.9654987
423,680226054600238,"2523 14th Street NW Washington, DC 20009",,,,38.9233108,-77.0315736
424,1084960450614161,"Benning Terrace Clinic",,,,,
425,1287549685614240,"Senior Wellness Center",,,,38.9336503,-77.023658
426,558598955804152,"Jewish Council for the Aging of Greater Washington",,,,39.0588554,-77.111526
427,818433220295218,"Wheaton Welcome Center",,,,39.0422653,-77.0528934
428,1288114944946075,"Southeast Library",,,,,
429,1091742936273498,"Engine 24 Station",,,,,
430,928333992201735,"Mamatoto Village",,,,38.8940638,-76.9346425
431,1091742936273498,"Engine 2 Station",,,,,
432,1277014247696961,FLOC,,,,38.8810939,-76.9881373
433,650479626662564,"NCCF DC Headquarters",,,,,
434,608190497391626,"Nativity Shelter",,,,38.9633712,-77.0283348
435,0,"New York Avenue Presbyterian Church",,,,38.8999882,-77.0311238
436,818433220295218,"Rockville Welcome Center",,,,39.0981633,-77.1320616
437,901970914472025,"YMCA Bethesda-Chevy Chase",,,,,
438,0,"DC Center for Independent Living – SE Satellite",,,,,
439,558598955804152,"Germantown Community Center",,,,39.1651892,-77.2855246
440,923928818796358,"250 E Street SW Washington, DC 20024",,,,38.8828972,-77.014434
441,790090664353865,"Domestic Violence Intake Center (DVIC) – SE",,,,38.8361605,-76.9842934
442,1093139785713640,"St. Steven Episcopal Church",,,,38.9334824,-77.0357195
443,1329764475795847,"899 N Capitol Street NE Washington, DC 20002",,,,38.9010559,-77.0085403
444,828308705468984,"601 E Street NW Washington, DC 20004",,,,38.8964301,-77.0205524
445,1321593994370513,"Community Outreach and Development",,,,38.8738467,-76.9333971
446,1316999943437051,"OIC/DC Headquarters",,,,38.8378534,-77.0064932
447,901970914472025,"The Children’s House at HUD",,,,,
448,1001381268835594,"Language Services",,"At Ayuda, we work to make sure that everyone can get help when they need it, regardless of the languages that they use to communicate.

We partner with and work for a wide array of clients, non-profit organizations, legal and social professionals, and more. Use one of the links below to learn about our language access services, our partnerships, and our opportunities. ",,,
449,0,"Malcolm X Opportunity Center",,,,38.8448695,-76.9871775
450,1275858156254689,"Seabury at Friendship Terrace",,,,38.949086,-77.0824831
451,1068988531733400,"Covenant House Washington",,,,38.8435269,-76.9742231
452,1287549685614240,"Petworth Health Center",,,,38.9392032,-77.0255908
453,1247526031790659,"Asbury United Methodist Church",,,,38.9019605,-77.0272552
454,0,"2700 Martin Luther King Jr. Avenue SE Washington, DC, 20032, US",,,,,
455,0,"1725 Lincoln Road NE Washington, DC 20002",,,,38.9136032,-77.0073706
456,808240584407061,"Community School - Walt Whitman Middle School",,,,38.741506,-77.074185
457,1091742936273498,"Engine 10 Station",,,,,
458,651560814879498,"6475 New Hampshire Avenue Hyattsville, MD 20783",,,,38.9678126,-77.0001127
459,1169767322641878,"Housing Counseling Services - Main Office",,,,38.9221357,-77.0396702
460,808240584407061,"Sacramento Neighborhood Center",,,,38.7210454,-77.1265692
461,951819432538468,"Community Connections - Main Office",,,,38.8836013,-76.994593
462,0,"3924 Minnesota Avenue NE Washington, DC, 20019, US",,,,,
463,638023829270297,"Congress Heights Campus",,,,38.8427636,-76.9999917
464,1280943812182660,"Lambert House",,"The Lambert House provides transitional housing for up to 24 men transitioning from homelessness to independent living.",,38.8670327,-76.9796751
465,1121342754860910,"Montgomery County Outpatient Center",,,,39.1004309,-77.2104258
466,0,"The Sterling STFH",,,,,
467,0,"Homeless Services Program Office",,,,,
468,940993634917751,"Food and Friends",,,,38.9556534,-77.0021964
469,1148831835061989,"Hillcrest - Rhode Island Ave",,,,38.911691,-77.0247585
470,603346266051726,"60 O Street, NW Washington DC 20001",,,,38.9082416,-77.0110598
471,1284952943863665,"Unity at Patricia Handy Place (Ward 2)",,,,,
472,893442799835060,"Southeast DC Office",,,,38.872858,-76.971339
473,766867144136285,"Northeastern Presbyterian Church",,,,38.9431552,-76.9749723
474,1187309405282204,"Mazique at Reeves",,,,38.9175547,-77.0324732
475,808240584407061,"Main Office",,,,38.7537763,-77.0851809
476,1091742936273498,"Engine 4 Station",,,,,
477,834433815510350,"Quality Trust",,,,38.9450022,-77.0634739
478,876886021673283,"Martha's Outfitters on MLK",,,,38.8646279,-76.9896651
479,1288114944946075,"Lamond-Riggs Library",,,,,
480,619974574898067,"MLK Jr. Ave.",,,,38.8659856,-76.9897776
481,1143076176825121,"Whitman-Walker at 1525",,,,,
482,937801028419059,"500 I Street NW Washington, DC 20001",,,,38.9005808,-77.0192653
483,0,"821 Howard Road SE Washington, DC 20020",,,,38.8638768,-76.9980495
484,1284952943863665,"Parkside Health Center (Ward 7)",,,,,
485,859831189737185,"Friendship Place Welcome Center",,,,38.9513627,-77.0805794
486,1213518469346648,"Barbara Chambers Children's Center #1",,,,38.9285104,-77.0353872
487,1160038998115387,"Woodley House",,,,38.9741106,-77.0137142
488,589460886355658,"Mental/Behavior Health Clinic",,,,38.8035133,-76.9827007
489,0,"2100 New York Avenue NE Washington, DC, 20002, US",,,,,
490,1213929827285708,"820 Chesapeake Street SE Washington, DC 20032",,,,38.8293787,-76.9924325
491,880448544501253,"La Casa Community Health Action Center",,,,38.9304207,-77.0382533
492,687390186581235,"Everyone Home DC Shirley’s Place Day Center",,,,38.8814731,-76.9869539
493,1284952943863665,"Anacostia Health Center (Ward 8) ",,,,,
494,1280943812182660,"Central Union Mailing Address",,,,38.92,-76.99
495,1315578558618439,"75 P Street NE Washington, DC 20002",,,,38.9096198,-77.0075199
496,790090664353865,"Domestic Violence Intake Center (DVIC) – NW",,,,38.8941,-77.018393
497,1311337308136967,"LAYC - Washington DC Center",,,,38.9277554,-77.0332829
498,1316999943437051,"OIC/DC Training Center",,,,38.844416,-76.99761
499,0,"1660 Columbia Road NW Washington, DC, 20009, US",,,,,
500,1288114944946075,"Benning Library",,,,,
501,894317666400367,"3720 Martin Luther King Jr. Ave SE Washington, DC 20032",,,,38.8369919,-77.0061558
502,0,"Downtown Day Services Center",,,,,
503,1289207775329081,CSC,,,,38.9308135,-77.0325058
504,1222701888984669,"Sasha Bruce - REACH",,,,38.8794592,-76.9955147
505,1288114944946075,"Shepherd Park Library",,,,,
506,794184973835515,"Miriam's Kitchen",,,,38.898614,-77.05167
507,949759665008692,"Wendt MLK",,,,38.8659856,-76.9897776
508,896693842803738,"Phyllis Wheatley YWCA",,,,38.9119189,-77.0244661
509,1235669446637932,"Ralph Waldo 'Petey' Greene Community Service Center",,,,38.8460534,-76.9971121
510,1315578558618439,"DC Department of Behavioral Health Main Office",,,,38.9091966,-77.0064165
511,1290880981505786,"We Are Family DC Mailing Address",,,,38.9334824,-77.0357195
512,1222701888984669,"Sasha Bruce - Richardson Youth Center",,,,38.8929043,-76.9236294
513,768872992887477,"Rita Bright Family and Youth Center",,,,38.9221283,-77.0324732
514,1091742936273498,"Engine 9 Station",,,,,
515,885909108792595,"600 5th Street NW Washington, DC 20001",,,,38.8979138,-77.0194727
516,1222701888984669,"Project Safe Place",,,,38.894903,-76.9955839
517,1288114944946075,"Georgetown Library",,,,,
518,0,"645 Pennsylvania Avenue Southeast Washington, DC 20003",,,,38.8845763,-76.9969321
519,1102284383103447,"DHS Main Office",,,,,
520,996098214626085,"305 E Street, NW Washington, DC 20001",,,,38.8963228,-77.0155925
521,618748399513081,"A Wider Circle Mailing Address",,,,38.985632,-77.0973201
522,1150393600767860,"Clean and Sober Streets",,,,38.8954586,-77.0133543
523,1259502496256180,"1126 16th Street NW Washington, DC 20036",,,,38.9044886,-77.0368814
524,769307542856582,"2000 P St NW Suite 240, Washington DC 20036",,,,,
525,1091742936273498,"Engine 31 Station",,,,,
526,619974574898067,Intake,,,,38.8955274,-76.9484399
527,926810814518189,"202 Custer Road Fort Myer, VA 22211",,,,38.8861756,-77.0805721
528,0,"828 Evarts Place, NE Washington, DC, 20018, US",,,,,
529,1288114944946075,"Rosedale Library",,,,,
530,0,"1525 7th Street, N.W.",,,,,
531,1187309405282204,"Mazique at 13th Street","Central Office (Headquarters)",,,38.9132582,-77.0292345
532,1143076176825121,"Max Robinson Center",,,,,
533,1091742936273498,"Engine 32 Station",,,,,
534,1203024767725850,"Conway Health And Resource Center",,,,38.8313484,-77.008632
535,0,"Barry Farm",,,,38.8592798,-76.9949298
536,824966357062743,"DC Rape Crisis Center",,,,38.9550997,-77.0040411
537,558598955804152,"Margaret Schweinhaut Senior Center",,,,39.0175246,-77.0263105
538,901970914472025,"YMCA Capital View Program Center",,,,,
539,1091742936273498,"Engine 8 Station",,,,,
540,940973163563518,"Northwest DC",,,,38.9527271,-77.0358244
541,948945946067736,"425 2nd Street NW Washington, DC 20001",,,,38.8954586,-77.0133543
542,738572047054521,"2812 Pennsylvania Avenue, SE",,,,38.2702751,-76.750966
543,940973163563518,"Church of Our Saviour/Silver Spring",,,,39.0228709,-76.9769054
544,818433220295218,"Falls Church Welcome Center",,,,38.8830073,-77.1784193
545,626697805700987,"Food for Others",,,,38.871416,-77.23827
546,949931067639251,"Assumption Catholic Church",,,,38.8411644,-77.0041536
547,1275858156254689,"Seabury - Model Cities Senior Wellness Center",,,,38.9240983,-76.9766825
548,1151822564676160,"Lutheran Church of the Reformation",,,,38.8900657,-77.0028518
549,818433220295218,"Baltimore Welcome Center",,,,39.2946204,-76.5855305
550,790090664353865,"Legal Aid Society of DC - Main Office",,,,38.9003812,-77.0309775
551,1251281769259929,"3309 16th Street NW Washington, DC 20010",,,,38.9319239,-77.0360155
552,1284952943863665,"Unity at Pathways to Housing Health Center (Ward 5)",,,,,
553,621917000765528,"Goodwill of Washington DC",,"Both career center and retail store.",,38.9201573,-76.9583828
554,808240584407061,"Back Porch Thrift Store",,,,38.7212972,-77.1270107
555,0,"65 Massachusetts Avenue NW Washington, DC, 20001, US",,,,,
556,883017980786398,ACTS,,,,38.9059245,-77.0457525
557,808240584407061,"Progreso Center for Literacy & Citizenship​",,,,38.7305614,-77.1026873
558,968658581917911,"441 4th St, NW 20001 #1 Judiciary Square",,,,,
559,747066554934957,"5 Thomas Circle NW Washington, DC 20005",,,,38.9064906,-77.0325632
560,1275858156254689,"Seabury - Administrative Office",,,,38.9631309,-77.0094851
561,0,"SOME Conway Center",,,,,
562,909886281557711,"DC Capital Area Food Bank",,,,,
563,992550837539148,"Georgia Avenue (Main Office)",,,,38.9669177,-77.0270752
564,818433220295218,"Prince George’s Welcome Center",,,,38.9908142,-76.9879105
565,876886021673283,"McKenna's Wagon 2nd & H Streets, NW",,,,38.9003849,-77.0135255
566,1130582994663717,"118 Brookley Avenue Washington, DC 20032",,,,38.8449322,-77.01131
567,902975658133732,"The Calvin Rolark Center",,,,38.9169161,-77.0002842
